{
"type": "FeatureCollection",
"crs": { "type": "name", "properties": { "name": "urn:ogc:def:crs:OGC:1.3:CRS84" } },
"features": [
{ "type": "Feature", "properties": { "Program Number": "203006", "Program Type": "HW", "Program Facility Name": "2614 University Avenue", "Site Class": "N", "Address1": "2614 University Avenue", "Address2": null, "County": "Bronx", "ZIPCode": "10468", "Project Name": null, "Project Completion Date": null, "Waste Name": null, "Contaminants": null }, "geometry": { "type": "Point", "coordinates": [ -73.90120219, 40.86749244 ] } },
{ "type": "Feature", "properties": { "Program Number": "224006", "Program Type": "HW", "Program Facility Name": "Apex Thermoplastics Inc.", "Site Class": "N", "Address1": "100-110 Bridge Street", "Address2": null, "County": "Kings", "ZIPCode": null, "Project Name": null, "Project Completion Date": null, "Waste Name": "UNKNOWN", "Contaminants": null }, "geometry": { "type": "Point", "coordinates": [ -73.985129404, 40.698186803 ] } },
{ "type": "Feature", "properties": { "Program Number": "C231090", "Program Type": "BCP", "Program Facility Name": "1900 Park Avenue", "Site Class": "N", "Address1": "1900 Park Avenue", "Address2": null, "County": "New York", "ZIPCode": "10037", "Project Name": null, "Project Completion Date": null, "Waste Name": null, "Contaminants": "copper" }, "geometry": { "type": "Point", "coordinates": [ -73.937341667, 40.807788889 ] } },
{ "type": "Feature", "properties": { "Program Number": "C231100", "Program Type": "BCP", "Program Facility Name": "401 East 120th Street", "Site Class": "N", "Address1": "401 East 120th Street", "Address2": null, "County": "New York", "ZIPCode": "10035", "Project Name": null, "Project Completion Date": null, "Waste Name": null, "Contaminants": null }, "geometry": { "type": "Point", "coordinates": [ -73.933336111, 40.798511111 ] } },
{ "type": "Feature", "properties": { "Program Number": "C241240", "Program Type": "BCP", "Program Facility Name": "94-17 63rd Drive", "Site Class": "A", "Address1": "94-17 63rd Drive", "Address2": null, "County": "Queens", "ZIPCode": "11374", "Project Name": null, "Project Completion Date": "06\/30\/2023", "Waste Name": null, "Contaminants": null }, "geometry": { "type": "Point", "coordinates": [ -73.863249979, 40.729242822 ] } },
{ "type": "Feature", "properties": { "Program Number": "V00321", "Program Type": "VCP", "Program Facility Name": "Block 3579, Lot 1", "Site Class": "N", "Address1": "Block 3579, Lot 1", "Address2": null, "County": "Bronx", "ZIPCode": "10473", "Project Name": null, "Project Completion Date": null, "Waste Name": null, "Contaminants": null }, "geometry": { "type": "Point", "coordinates": [ -73.841305349, 40.820409178 ] } },
{ "type": "Feature", "properties": { "Program Number": "241011A", "Program Type": "HW", "Program Facility Name": "Queens West - South", "Site Class": "N", "Address1": "Center Blvd, 47th Rd, 48th Ave", "Address2": null, "County": "Queens", "ZIPCode": "11101", "Project Name": null, "Project Completion Date": null, "Waste Name": null, "Contaminants": null }, "geometry": { "type": "Point", "coordinates": [ -73.957573299, 40.744559984 ] } },
{ "type": "Feature", "properties": { "Program Number": "224069", "Program Type": "HW", "Program Facility Name": "K - Wythe Ave. Station", "Site Class": "A", "Address1": "Wythe Ave., Berry St., N 12th & 13th St", "Address2": null, "County": "Kings", "ZIPCode": "11211", "Project Name": "Remedial Action", "Project Completion Date": "06\/22\/2015", "Waste Name": null, "Contaminants": "dibenz[a,h]anthracene" }, "geometry": { "type": "Point", "coordinates": [ -73.956388889, 40.722222222 ] } },
{ "type": "Feature", "properties": { "Program Number": "203112", "Program Type": "HW", "Program Facility Name": "CE Hunts Point MGP Off-Site", "Site Class": "A", "Address1": "Hunts Point", "Address2": null, "County": "Bronx", "ZIPCode": "10474", "Project Name": null, "Project Completion Date": "07\/30\/2022", "Waste Name": null, "Contaminants": null }, "geometry": { "type": "Point", "coordinates": [ -73.874444444, 40.806944444 ] } },
{ "type": "Feature", "properties": { "Program Number": "224135", "Program Type": "HW", "Program Facility Name": "460 Kingsland Avenue", "Site Class": "P", "Address1": "460 Kingsland Avenue", "Address2": null, "County": "Kings", "ZIPCode": "11222", "Project Name": null, "Project Completion Date": "05\/31\/2022", "Waste Name": null, "Contaminants": "mercury" }, "geometry": { "type": "Point", "coordinates": [ -73.941388889, 40.7325 ] } },
{ "type": "Feature", "properties": { "Program Number": "224019B", "Program Type": "HW", "Program Facility Name": "K-Nassau Works MGP", "Site Class": "A", "Address1": "Kent Avenue", "Address2": null, "County": "Kings", "ZIPCode": "11205", "Project Name": "Remedial Investigation", "Project Completion Date": "09\/04\/2020", "Waste Name": null, "Contaminants": "benzene" }, "geometry": { "type": "Point", "coordinates": [ -73.968894784, 40.705068422 ] } },
{ "type": "Feature", "properties": { "Program Number": "224259", "Program Type": "HW", "Program Facility Name": "Former Techtronics Site B", "Site Class": "N", "Address1": "480 Flushing Avenue", "Address2": null, "County": "Kings", "ZIPCode": "11205", "Project Name": "Site Characterization", "Project Completion Date": "03\/04\/2019", "Waste Name": null, "Contaminants": null }, "geometry": { "type": "Point", "coordinates": [ -73.955266667, 40.698955556 ] } },
{ "type": "Feature", "properties": { "Program Number": "241032", "Program Type": "HW", "Program Facility Name": "K - Far Rockaway MGP", "Site Class": "A", "Address1": "1200 Block of Brunswick Ave", "Address2": null, "County": "Queens", "ZIPCode": "11691", "Project Name": "Remedial Investigation", "Project Completion Date": "03\/27\/2012", "Waste Name": null, "Contaminants": "benzene" }, "geometry": { "type": "Point", "coordinates": [ -73.748500347, 40.610184476 ] } },
{ "type": "Feature", "properties": { "Program Number": "241208", "Program Type": "HW", "Program Facility Name": "CE - Farrington St. MGP", "Site Class": "A", "Address1": "Block 4406 Lot 30 & 133-01 Higgins St.", "Address2": null, "County": "Queens", "ZIPCode": "11354", "Project Name": null, "Project Completion Date": "03\/31\/2024", "Waste Name": null, "Contaminants": null }, "geometry": { "type": "Point", "coordinates": [ -73.833854994, 40.767783338 ] } },
{ "type": "Feature", "properties": { "Program Number": "243035", "Program Type": "HW", "Program Facility Name": "Jewett White Lead", "Site Class": "P", "Address1": "2000-2012 & 2015 Richmond Terrace", "Address2": null, "County": "Richmond", "ZIPCode": "10302", "Project Name": "Site Characterization", "Project Completion Date": "07\/17\/2014", "Waste Name": null, "Contaminants": null }, "geometry": { "type": "Point", "coordinates": [ -74.129815, 40.640324 ] } },
{ "type": "Feature", "properties": { "Program Number": "241204", "Program Type": "HW", "Program Facility Name": "Former Duraspec Electroplating", "Site Class": "C", "Address1": "87-83 139th Street", "Address2": null, "County": "Queens", "ZIPCode": "11435", "Project Name": "Remedial Action", "Project Completion Date": "09\/12\/2019", "Waste Name": null, "Contaminants": "trichloroethene (TCE)" }, "geometry": { "type": "Point", "coordinates": [ -73.814032, 40.704083 ] } },
{ "type": "Feature", "properties": { "Program Number": "231117", "Program Type": "HW", "Program Facility Name": "CE - York Ave Station", "Site Class": "A", "Address1": "York Ave. between 61st & 63rd Sts.", "Address2": null, "County": "New York", "ZIPCode": "10021", "Project Name": "Remedial Investigation", "Project Completion Date": "05\/17\/2021", "Waste Name": null, "Contaminants": "methyl-tert-butyl ether (MTBE)" }, "geometry": { "type": "Point", "coordinates": [ -73.958961984, 40.760452183 ] } },
{ "type": "Feature", "properties": { "Program Number": "241028", "Program Type": "HW", "Program Facility Name": "National Rubber Adhesives, Inc.", "Site Class": "02", "Address1": "38-31 9th Street", "Address2": null, "County": "Queens", "ZIPCode": "11101", "Project Name": null, "Project Completion Date": "07\/31\/2023", "Waste Name": null, "Contaminants": "vinyl chloride" }, "geometry": { "type": "Point", "coordinates": [ -73.943927673, 40.75804874 ] } },
{ "type": "Feature", "properties": { "Program Number": "224146", "Program Type": "HW", "Program Facility Name": "Chemtura 633 Court Street", "Site Class": "02", "Address1": "633 Court Street", "Address2": null, "County": "Kings", "ZIPCode": "11231", "Project Name": null, "Project Completion Date": "07\/31\/2023", "Waste Name": null, "Contaminants": "acetone" }, "geometry": { "type": "Point", "coordinates": [ -74.001353, 40.670281 ] } },
{ "type": "Feature", "properties": { "Program Number": "241002", "Program Type": "HW", "Program Facility Name": "Phelps Dodge Refining Corporation", "Site Class": "02", "Address1": "42-02 56th Road", "Address2": null, "County": "Queens", "ZIPCode": "11378", "Project Name": null, "Project Completion Date": "12\/31\/2022", "Waste Name": "ASBESTOS", "Contaminants": "asbestos" }, "geometry": { "type": "Point", "coordinates": [ -73.92267851, 40.72479937 ] } },
{ "type": "Feature", "properties": { "Program Number": "224129", "Program Type": "HW", "Program Facility Name": "Former Spic and Span Cleaners and Dyers Inc.", "Site Class": "02", "Address1": "315 Kingsland Avenue", "Address2": null, "County": "Kings", "ZIPCode": "11222", "Project Name": null, "Project Completion Date": "10\/25\/2017", "Waste Name": null, "Contaminants": null }, "geometry": { "type": "Point", "coordinates": [ -73.942222, 40.727586 ] } },
{ "type": "Feature", "properties": { "Program Number": "203108", "Program Type": "HW", "Program Facility Name": "CE - E. 138th St. - Bronx Works", "Site Class": "A", "Address1": "East 138th - East 140th Sts.", "Address2": null, "County": "Bronx", "ZIPCode": "10454", "Project Name": "Remedial Design", "Project Completion Date": "10\/18\/2018", "Waste Name": null, "Contaminants": "benzo(k)fluoranthene" }, "geometry": { "type": "Point", "coordinates": [ -73.907546485, 40.802772238 ] } },
{ "type": "Feature", "properties": { "Program Number": "224058", "Program Type": "HW", "Program Facility Name": "K - Bay Ridge A Station", "Site Class": "A", "Address1": "8th & 9th Ave, 63rd & 64th Sts", "Address2": null, "County": "Kings", "ZIPCode": "11220", "Project Name": null, "Project Completion Date": "12\/09\/2019", "Waste Name": null, "Contaminants": null }, "geometry": { "type": "Point", "coordinates": [ -74.012063059, 40.631724348 ] } },
{ "type": "Feature", "properties": { "Program Number": "224003", "Program Type": "HW", "Program Facility Name": "Fountain Avenue Landfill", "Site Class": "04", "Address1": "Fountain Avenue and Shore Parkway", "Address2": null, "County": "Kings", "ZIPCode": "11208", "Project Name": "Remedial Action", "Project Completion Date": "03\/30\/2012", "Waste Name": "PHENOLS", "Contaminants": null }, "geometry": { "type": "Point", "coordinates": [ -73.86427944, 40.64670365 ] } },
{ "type": "Feature", "properties": { "Program Number": "224047", "Program Type": "HW", "Program Facility Name": "K - Dangman Park MGP", "Site Class": "A", "Address1": "486 Neptune Ave", "Address2": null, "County": "Kings", "ZIPCode": "11224", "Project Name": "Remedial Action", "Project Completion Date": "01\/29\/2020", "Waste Name": null, "Contaminants": null }, "geometry": { "type": "Point", "coordinates": [ -73.972778889, 40.578951111 ] } },
{ "type": "Feature", "properties": { "Program Number": "231083", "Program Type": "HW", "Program Facility Name": "LIRR West Side Yard", "Site Class": "P", "Address1": "12th Ave and W 33rd St", "Address2": null, "County": "New York", "ZIPCode": "10001", "Project Name": "Site Characterization", "Project Completion Date": "11\/04\/2020", "Waste Name": null, "Contaminants": "benzene, toluene, ethylbenzene and xylenes (BTEX)" }, "geometry": { "type": "Point", "coordinates": [ -74.004936111, 40.755802778 ] } },
{ "type": "Feature", "properties": { "Program Number": "224012", "Program Type": "HW", "Program Facility Name": "K - Citizens MGP - Carroll Garden", "Site Class": "A", "Address1": "Corner of 5th Street & Smith Street", "Address2": null, "County": "Kings", "ZIPCode": "11218", "Project Name": null, "Project Completion Date": "09\/30\/2023", "Waste Name": "TOLUENE", "Contaminants": "toluene" }, "geometry": { "type": "Point", "coordinates": [ -73.995801588, 40.676389434 ] } },
{ "type": "Feature", "properties": { "Program Number": "203063", "Program Type": "HW", "Program Facility Name": "Towne House Cleaners-Co-op City", "Site Class": "P", "Address1": "181 Einstein Loop", "Address2": null, "County": "Bronx", "ZIPCode": "10475", "Project Name": "Remedial Design", "Project Completion Date": "04\/26\/2013", "Waste Name": null, "Contaminants": null }, "geometry": { "type": "Point", "coordinates": [ -73.822860538, 40.864421858 ] } },
{ "type": "Feature", "properties": { "Program Number": "224136", "Program Type": "HW", "Program Facility Name": "Former NuHart Plastic Manufacturing", "Site Class": "02", "Address1": "49 Dupont Street", "Address2": null, "County": "Kings", "ZIPCode": "11222", "Project Name": null, "Project Completion Date": "12\/30\/2023", "Waste Name": null, "Contaminants": "vinyl chloride" }, "geometry": { "type": "Point", "coordinates": [ -73.958054247, 40.735950293 ] } },
{ "type": "Feature", "properties": { "Program Number": "241012", "Program Type": "HW", "Program Facility Name": "CE - Astoria MGP", "Site Class": "A", "Address1": "20 Avenue", "Address2": null, "County": "Queens", "ZIPCode": "11105-", "Project Name": null, "Project Completion Date": "10\/31\/2022", "Waste Name": null, "Contaminants": null }, "geometry": { "type": "Point", "coordinates": [ -73.91030766, 40.78549431 ] } },
{ "type": "Feature", "properties": { "Program Number": "241128", "Program Type": "HW", "Program Facility Name": "127-13 Merrick Boulevard", "Site Class": "C", "Address1": "127-13 Merrick Boulevard", "Address2": null, "County": "Queens", "ZIPCode": "11434", "Project Name": "Remedial Action", "Project Completion Date": "05\/19\/2016", "Waste Name": null, "Contaminants": null }, "geometry": { "type": "Point", "coordinates": [ -73.765013889, 40.681622222 ] } },
{ "type": "Feature", "properties": { "Program Number": "203003", "Program Type": "HW", "Program Facility Name": "Hexagon Laboratories", "Site Class": "04", "Address1": "3536 Pear Tree Avenue", "Address2": null, "County": "Bronx", "ZIPCode": "10475", "Project Name": "Remedial Action", "Project Completion Date": "03\/31\/2012", "Waste Name": null, "Contaminants": "toluene" }, "geometry": { "type": "Point", "coordinates": [ -73.82567517, 40.88700183 ] } },
{ "type": "Feature", "properties": { "Program Number": "241104", "Program Type": "HW", "Program Facility Name": "College Point 2", "Site Class": "N", "Address1": "121st Street", "Address2": null, "County": "Queens", "ZIPCode": "11356", "Project Name": "Site Characterization", "Project Completion Date": "03\/10\/2011", "Waste Name": null, "Contaminants": "PCB aroclor 1254" }, "geometry": { "type": "Point", "coordinates": [ -73.847060936, 40.794786605 ] } },
{ "type": "Feature", "properties": { "Program Number": "224320", "Program Type": "HW", "Program Facility Name": "1810-1818 Cropsey Ave", "Site Class": "P", "Address1": "1810-1818 Cropsey Ave aka 232 Bay 19th Street", "Address2": null, "County": "Kings", "ZIPCode": "11214", "Project Name": null, "Project Completion Date": "09\/30\/2022", "Waste Name": null, "Contaminants": "butylbenzene" }, "geometry": { "type": "Point", "coordinates": [ -74.007133, 40.602245 ] } },
{ "type": "Feature", "properties": { "Program Number": "241129", "Program Type": "HW", "Program Facility Name": "DeWalt Queens Boulevard", "Site Class": "N", "Address1": "56-15 Queens Boulevard", "Address2": null, "County": "Queens", "ZIPCode": "11377", "Project Name": null, "Project Completion Date": null, "Waste Name": null, "Contaminants": "benzo(b)fluoranthene" }, "geometry": { "type": "Point", "coordinates": [ -73.924166667, 40.736944444 ] } },
{ "type": "Feature", "properties": { "Program Number": "241016", "Program Type": "HW", "Program Facility Name": "Standard Motor Products, Inc.", "Site Class": "02", "Address1": "37-18 Northern Boulevard", "Address2": null, "County": "Queens", "ZIPCode": "11101", "Project Name": null, "Project Completion Date": "12\/31\/2021", "Waste Name": null, "Contaminants": "1,1 dichloroethene" }, "geometry": { "type": "Point", "coordinates": [ -73.9259763, 40.75240485 ] } },
{ "type": "Feature", "properties": { "Program Number": "203090", "Program Type": "HW", "Program Facility Name": "972-976 Leggett Avenue-OER", "Site Class": "N", "Address1": "972-976 Leggett Avenue", "Address2": null, "County": "Bronx", "ZIPCode": "10455", "Project Name": "Site Characterization", "Project Completion Date": "04\/18\/2019", "Waste Name": null, "Contaminants": null }, "geometry": { "type": "Point", "coordinates": [ -73.900101, 40.814793 ] } },
{ "type": "Feature", "properties": { "Program Number": "241123", "Program Type": "HW", "Program Facility Name": "Former Cleaners Products Supply", "Site Class": "02", "Address1": "50-45 Barnett Avenue", "Address2": null, "County": "Queens", "ZIPCode": "11104", "Project Name": null, "Project Completion Date": "03\/31\/2023", "Waste Name": null, "Contaminants": null }, "geometry": { "type": "Point", "coordinates": [ -73.911453614, 40.750205845 ] } },
{ "type": "Feature", "properties": { "Program Number": "243010", "Program Type": "HW", "Program Facility Name": "Arden Woods Estates Inc.", "Site Class": "04", "Address1": "North of Mosely Avenue btwn Arden Ave & Seguine Pl", "Address2": null, "County": "Richmond", "ZIPCode": "10312", "Project Name": "Remedial Action", "Project Completion Date": "12\/16\/2003", "Waste Name": null, "Contaminants": null }, "geometry": { "type": "Point", "coordinates": [ -74.17178636, 40.54040327 ] } },
{ "type": "Feature", "properties": { "Program Number": "224133", "Program Type": "HW", "Program Facility Name": "Gowanus Canal Site", "Site Class": "02", "Address1": "Gowanus Canal", "Address2": null, "County": "Kings", "ZIPCode": "11217", "Project Name": null, "Project Completion Date": "03\/15\/2023", "Waste Name": null, "Contaminants": null }, "geometry": { "type": "Point", "coordinates": [ -73.996527293, 40.674052627 ] } },
{ "type": "Feature", "properties": { "Program Number": "241006", "Program Type": "HW", "Program Facility Name": "Amtrak Sunnyside Yard", "Site Class": "02", "Address1": "39-29 HONEYWELL STREET", "Address2": null, "County": "Queens", "ZIPCode": "11101", "Project Name": "Remedial Investigation", "Project Completion Date": "03\/27\/2012", "Waste Name": null, "Contaminants": "polychlorinated biphenyls (PCB)" }, "geometry": { "type": "Point", "coordinates": [ -73.928532, 40.751032 ] } },
{ "type": "Feature", "properties": { "Program Number": "241017", "Program Type": "HW", "Program Facility Name": "Fort Totten", "Site Class": "02", "Address1": "Willets Point - Fort Totten", "Address2": null, "County": "Queens", "ZIPCode": "11359", "Project Name": "Remedial Design", "Project Completion Date": "01\/20\/2017", "Waste Name": null, "Contaminants": "lead" }, "geometry": { "type": "Point", "coordinates": [ -73.78007799, 40.79350092 ] } },
{ "type": "Feature", "properties": { "Program Number": "243006", "Program Type": "HW", "Program Facility Name": "Brookfield Avenue Landfill", "Site Class": "04", "Address1": "Arthur Kill Road", "Address2": null, "County": "Richmond", "ZIPCode": "10031", "Project Name": "Remedial Action", "Project Completion Date": "11\/30\/2015", "Waste Name": null, "Contaminants": "manganese" }, "geometry": { "type": "Point", "coordinates": [ -74.15928979, 40.5652043 ] } },
{ "type": "Feature", "properties": { "Program Number": "231109", "Program Type": "HW", "Program Facility Name": "CE - W. 45th St. Gas Works", "Site Class": "A", "Address1": "12th Ave.between West 44th & West 46th Sts.", "Address2": null, "County": "New York", "ZIPCode": "10036", "Project Name": "Remedial Design", "Project Completion Date": "03\/03\/2022", "Waste Name": null, "Contaminants": null }, "geometry": { "type": "Point", "coordinates": [ -73.998755855, 40.763285635 ] } },
{ "type": "Feature", "properties": { "Program Number": "203109", "Program Type": "HW", "Program Facility Name": "CE - Unionport Works", "Site Class": "A", "Address1": "1066 Zerega Avenue", "Address2": null, "County": "Bronx", "ZIPCode": "10462", "Project Name": "Remedial Investigation", "Project Completion Date": "12\/03\/2019", "Waste Name": null, "Contaminants": null }, "geometry": { "type": "Point", "coordinates": [ -73.84364699, 40.830209656 ] } },
{ "type": "Feature", "properties": { "Program Number": "241144", "Program Type": "HW", "Program Facility Name": "Queens Medallion Leasing", "Site Class": "N", "Address1": "21-03 44th Avenue", "Address2": null, "County": "Queens", "ZIPCode": "11101", "Project Name": null, "Project Completion Date": null, "Waste Name": null, "Contaminants": null }, "geometry": { "type": "Point", "coordinates": [ -73.946084797, 40.749770601 ] } },
{ "type": "Feature", "properties": { "Program Number": "241137", "Program Type": "HW", "Program Facility Name": "Former Weixler Thermometer", "Site Class": "C", "Address1": "59-44 Summerfield Street", "Address2": null, "County": "Queens", "ZIPCode": "11385", "Project Name": "Remedial Design", "Project Completion Date": "02\/04\/2013", "Waste Name": null, "Contaminants": "mercury" }, "geometry": { "type": "Point", "coordinates": [ -73.896683333, 40.700044444 ] } },
{ "type": "Feature", "properties": { "Program Number": "224019A", "Program Type": "HW", "Program Facility Name": "Brooklyn Navy Yard 13 Acre Parcel", "Site Class": "02", "Address1": "Kent Avenue", "Address2": null, "County": "Kings", "ZIPCode": "11205-", "Project Name": "Site Characterization", "Project Completion Date": "08\/25\/2003", "Waste Name": "PCBs  (B007 Waste)", "Contaminants": "PCB oil" }, "geometry": { "type": "Point", "coordinates": [ -73.96839137, 40.70519118 ] } },
{ "type": "Feature", "properties": { "Program Number": "224015", "Program Type": "HW", "Program Facility Name": "Empire Electric Company", "Site Class": "02", "Address1": "5200 1st Avenue", "Address2": null, "County": "Kings", "ZIPCode": "11232", "Project Name": null, "Project Completion Date": "01\/31\/2023", "Waste Name": null, "Contaminants": null }, "geometry": { "type": "Point", "coordinates": [ -74.020919, 40.649401 ] } },
{ "type": "Feature", "properties": { "Program Number": "224132", "Program Type": "HW", "Program Facility Name": "ACME Steel\/Brass Foundry", "Site Class": "02", "Address1": "72 Anthony Street", "Address2": null, "County": "Kings", "ZIPCode": "11222", "Project Name": "Remedial Design", "Project Completion Date": "09\/01\/2020", "Waste Name": null, "Contaminants": "trichloroethene (TCE)" }, "geometry": { "type": "Point", "coordinates": [ -73.935406389, 40.723570833 ] } },
{ "type": "Feature", "properties": { "Program Number": "203068", "Program Type": "HW", "Program Facility Name": "650 Waring Avenue", "Site Class": "N", "Address1": "650 Waring Avenue", "Address2": null, "County": "Bronx", "ZIPCode": "10467", "Project Name": null, "Project Completion Date": "08\/16\/2018", "Waste Name": null, "Contaminants": null }, "geometry": { "type": "Point", "coordinates": [ -73.868974162, 40.861102536 ] } },
{ "type": "Feature", "properties": { "Program Number": "231120", "Program Type": "HW", "Program Facility Name": "CE - Hester St. Gas Works", "Site Class": "A", "Address1": "Hester Street", "Address2": null, "County": "New York", "ZIPCode": "10013", "Project Name": "Remedial Investigation", "Project Completion Date": "01\/31\/2019", "Waste Name": null, "Contaminants": "toluene" }, "geometry": { "type": "Point", "coordinates": [ -73.999229695, 40.718400319 ] } },
{ "type": "Feature", "properties": { "Program Number": "224239", "Program Type": "HW", "Program Facility Name": "Former Techtronics Ecological Corp.", "Site Class": "N", "Address1": "8 Walworth Street", "Address2": null, "County": "Kings", "ZIPCode": "11205", "Project Name": null, "Project Completion Date": "09\/30\/2017", "Waste Name": null, "Contaminants": "tetrachloroethene (PCE)" }, "geometry": { "type": "Point", "coordinates": [ -73.955333333, 40.69875 ] } },
{ "type": "Feature", "properties": { "Program Number": "241005", "Program Type": "HW", "Program Facility Name": "Quanta Resources", "Site Class": "02", "Address1": "37-80 Review Avenue", "Address2": null, "County": "Queens", "ZIPCode": "10111", "Project Name": "Remedial Investigation", "Project Completion Date": "02\/09\/2007", "Waste Name": "TRICHLOROETHENE", "Contaminants": null }, "geometry": { "type": "Point", "coordinates": [ -73.9353765, 40.73120507 ] } },
{ "type": "Feature", "properties": { "Program Number": "241107", "Program Type": "HW", "Program Facility Name": "21-03 44th Avenue", "Site Class": "02", "Address1": "21-03 44th Avenue", "Address2": null, "County": "Queens", "ZIPCode": "11101", "Project Name": "Remedial Action", "Project Completion Date": "09\/19\/2011", "Waste Name": null, "Contaminants": "tetrachloroethene (PCE)" }, "geometry": { "type": "Point", "coordinates": [ -73.946245, 40.749466 ] } },
{ "type": "Feature", "properties": { "Program Number": "224068", "Program Type": "HW", "Program Facility Name": "K - Skillman St. Station", "Site Class": "A", "Address1": "7 Skillman Street", "Address2": null, "County": "Kings", "ZIPCode": "11205", "Project Name": "Remedial Investigation", "Project Completion Date": "03\/31\/2015", "Waste Name": null, "Contaminants": "isopropylbenzene" }, "geometry": { "type": "Point", "coordinates": [ -73.957302223, 40.697845145 ] } },
{ "type": "Feature", "properties": { "Program Number": "224036", "Program Type": "HW", "Program Facility Name": "Former Jayer Plating", "Site Class": "N", "Address1": "2 Ingraham St", "Address2": null, "County": "Kings", "ZIPCode": "11206", "Project Name": null, "Project Completion Date": "11\/16\/2010", "Waste Name": null, "Contaminants": "tetrachloroethene (PCE)" }, "geometry": { "type": "Point", "coordinates": [ -73.932820904, 40.706597423 ] } },
{ "type": "Feature", "properties": { "Program Number": "241007", "Program Type": "HW", "Program Facility Name": "Deknatel (Div. of Pfizer Hospital Prod.)", "Site Class": "C", "Address1": "96-20 222nd Street", "Address2": null, "County": "Queens", "ZIPCode": "11002", "Project Name": "Remedial Investigation", "Project Completion Date": "01\/01\/1994", "Waste Name": null, "Contaminants": null }, "geometry": { "type": "Point", "coordinates": [ -73.7312755, 40.71330522 ] } },
{ "type": "Feature", "properties": { "Program Number": "203072", "Program Type": "HW", "Program Facility Name": "Ace Suede and Leather", "Site Class": "02", "Address1": "808 East 139th Street", "Address2": null, "County": "Bronx", "ZIPCode": "10454", "Project Name": null, "Project Completion Date": "12\/31\/2023", "Waste Name": null, "Contaminants": null }, "geometry": { "type": "Point", "coordinates": [ -73.909627778, 40.804138889 ] } },
{ "type": "Feature", "properties": { "Program Number": "224168", "Program Type": "HW", "Program Facility Name": "Former Berkman Bros Site", "Site Class": "N", "Address1": "55 Eckford Street", "Address2": null, "County": "Kings", "ZIPCode": "11222", "Project Name": null, "Project Completion Date": "10\/30\/2018", "Waste Name": null, "Contaminants": null }, "geometry": { "type": "Point", "coordinates": [ -73.94829165, 40.721794775 ] } },
{ "type": "Feature", "properties": { "Program Number": "241227", "Program Type": "HW", "Program Facility Name": "107-35 Merrick Blvd-OER", "Site Class": "P", "Address1": "107-35 Merrick Blvd.", "Address2": null, "County": "Queens", "ZIPCode": "11433", "Project Name": null, "Project Completion Date": "05\/18\/2022", "Waste Name": null, "Contaminants": null }, "geometry": { "type": "Point", "coordinates": [ -73.787525, 40.69937 ] } },
{ "type": "Feature", "properties": { "Program Number": "224035", "Program Type": "HW", "Program Facility Name": "Former Majestic Garment Cleaners", "Site Class": "02", "Address1": "740 PINE STREET", "Address2": null, "County": "Kings", "ZIPCode": "11208", "Project Name": "Remedial Investigation", "Project Completion Date": "03\/18\/2014", "Waste Name": null, "Contaminants": "tetrachloroethene (PCE)" }, "geometry": { "type": "Point", "coordinates": [ -73.86928942, 40.66757059 ] } },
{ "type": "Feature", "properties": { "Program Number": "241014", "Program Type": "HW", "Program Facility Name": "Roehr Chemicals, Inc.", "Site Class": "C", "Address1": "52-28 37th Street", "Address2": null, "County": "Queens", "ZIPCode": "11101", "Project Name": "Site Characterization", "Project Completion Date": "10\/01\/1995", "Waste Name": null, "Contaminants": "ethylbenzene" }, "geometry": { "type": "Point", "coordinates": [ -73.93568628, 40.73480229 ] } },
{ "type": "Feature", "properties": { "Program Number": "243015", "Program Type": "HW", "Program Facility Name": "Fort Wadsworth - Battery Weed", "Site Class": "C", "Address1": "Naval Station - New York", "Address2": null, "County": "Richmond", "ZIPCode": "10305", "Project Name": "Remedial Action", "Project Completion Date": "10\/01\/1995", "Waste Name": "PCBS (B007 WASTE)", "Contaminants": null }, "geometry": { "type": "Point", "coordinates": [ -74.056633965, 40.605054028 ] } },
{ "type": "Feature", "properties": { "Program Number": "224208", "Program Type": "HW", "Program Facility Name": "Top Hat Cleaners", "Site Class": "N", "Address1": "152 Graham Ave.", "Address2": null, "County": "Kings", "ZIPCode": "11206", "Project Name": null, "Project Completion Date": "04\/08\/2021", "Waste Name": null, "Contaminants": "cis-1,2-dichloroethene" }, "geometry": { "type": "Point", "coordinates": [ -73.942972222, 40.7068 ] } },
{ "type": "Feature", "properties": { "Program Number": "243014", "Program Type": "HW", "Program Facility Name": "Allied Prince's Bay", "Site Class": "C", "Address1": "Seguine Avenue & Johnston Terrace", "Address2": null, "County": "Richmond", "ZIPCode": "10309", "Project Name": "Remedial Action", "Project Completion Date": "08\/30\/2000", "Waste Name": "PCBS", "Contaminants": null }, "geometry": { "type": "Point", "coordinates": [ -74.197045949, 40.512614977 ] } },
{ "type": "Feature", "properties": { "Program Number": "224130", "Program Type": "HW", "Program Facility Name": "Former Klink Cosmo Cleaners", "Site Class": "02", "Address1": "364 Richardson Street", "Address2": null, "County": "Kings", "ZIPCode": "11222", "Project Name": null, "Project Completion Date": "12\/31\/2024", "Waste Name": null, "Contaminants": "trichloroethene (TCE)" }, "geometry": { "type": "Point", "coordinates": [ -73.936897, 40.720203 ] } },
{ "type": "Feature", "properties": { "Program Number": "241021", "Program Type": "HW", "Program Facility Name": "Public School 60\/62Q Annex", "Site Class": "N", "Address1": "91-02 88 AVENUE", "Address2": null, "County": "Queens", "ZIPCode": "11421", "Project Name": "Site Characterization", "Project Completion Date": "01\/21\/2000", "Waste Name": null, "Contaminants": null }, "geometry": { "type": "Point", "coordinates": [ -73.852682553, 40.69193769 ] } },
{ "type": "Feature", "properties": { "Program Number": "224026", "Program Type": "HW", "Program Facility Name": "K - Former Brooklyn Borough Gas Works", "Site Class": "04", "Address1": "2731 West 12th Street", "Address2": null, "County": "Kings", "ZIPCode": "11224", "Project Name": "Remedial Design", "Project Completion Date": "08\/25\/2006", "Waste Name": null, "Contaminants": "acetone" }, "geometry": { "type": "Point", "coordinates": [ -73.97877774, 40.58150567 ] } },
{ "type": "Feature", "properties": { "Program Number": "203005", "Program Type": "HW", "Program Facility Name": "Bronx Psychiatric Center", "Site Class": "03", "Address1": "1500 WATERS PLACE", "Address2": null, "County": "Bronx", "ZIPCode": "10461", "Project Name": "Remedial Investigation", "Project Completion Date": "03\/30\/2019", "Waste Name": "PCB 1260, 1254, & 1016", "Contaminants": "PCB aroclor 1260" }, "geometry": { "type": "Point", "coordinates": [ -73.83868216, 40.84910103 ] } },
{ "type": "Feature", "properties": { "Program Number": "224277", "Program Type": "HW", "Program Facility Name": "134 Metropolitan Avenue-OER", "Site Class": "N", "Address1": "134 Metropolitan Avenue", "Address2": null, "County": "Kings", "ZIPCode": "11249", "Project Name": "Site Characterization", "Project Completion Date": "03\/15\/2022", "Waste Name": null, "Contaminants": "tetrachloroethene (PCE)" }, "geometry": { "type": "Point", "coordinates": [ -73.962611111, 40.716147222 ] } },
{ "type": "Feature", "properties": { "Program Number": "203001", "Program Type": "HW", "Program Facility Name": "Pelham Bay Landfill", "Site Class": "04", "Address1": "3410 Bruckner Boulevard", "Address2": null, "County": "Bronx", "ZIPCode": "10474", "Project Name": "Remedial Design", "Project Completion Date": "03\/01\/1994", "Waste Name": "DICHLOROBENZENE", "Contaminants": "dichlorobenzene (mixed)" }, "geometry": { "type": "Point", "coordinates": [ -73.81398196, 40.85649765 ] } },
{ "type": "Feature", "properties": { "Program Number": "241008", "Program Type": "HW", "Program Facility Name": "Idlewild Construction Waste Landfill", "Site Class": "03", "Address1": "Rockaway Boulevard", "Address2": null, "County": "Queens", "ZIPCode": "11430", "Project Name": "Site Characterization", "Project Completion Date": "11\/01\/1994", "Waste Name": null, "Contaminants": "mercury" }, "geometry": { "type": "Point", "coordinates": [ -73.75288116, 40.65110339 ] } },
{ "type": "Feature", "properties": { "Program Number": "241026", "Program Type": "HW", "Program Facility Name": "West Side Corporation", "Site Class": "02", "Address1": "107-10 180TH STREET", "Address2": null, "County": "Queens", "ZIPCode": "11433", "Project Name": "Remedial Design", "Project Completion Date": "07\/23\/2020", "Waste Name": null, "Contaminants": null }, "geometry": { "type": "Point", "coordinates": [ -73.777351, 40.701481 ] } },
{ "type": "Feature", "properties": { "Program Number": "241122", "Program Type": "HW", "Program Facility Name": "College Point 3", "Site Class": "02", "Address1": "121st Street", "Address2": null, "County": "Queens", "ZIPCode": "11356", "Project Name": "Remedial Design", "Project Completion Date": "06\/15\/2018", "Waste Name": null, "Contaminants": "PCB aroclor 1242" }, "geometry": { "type": "Point", "coordinates": [ -73.847119, 40.794771 ] } },
{ "type": "Feature", "properties": { "Program Number": "241161", "Program Type": "HW", "Program Facility Name": "131-05 Fowler Avenue", "Site Class": "N", "Address1": "131-05 FOWLER AVENUE", "Address2": null, "County": "Queens", "ZIPCode": "11355", "Project Name": null, "Project Completion Date": null, "Waste Name": null, "Contaminants": null }, "geometry": { "type": "Point", "coordinates": [ -73.834895, 40.751734 ] } },
{ "type": "Feature", "properties": { "Program Number": "243018", "Program Type": "HW", "Program Facility Name": "Former Paul Miller Dry Cleaners", "Site Class": "02", "Address1": "1465 Forest Avenue", "Address2": null, "County": "Richmond", "ZIPCode": "10301-", "Project Name": null, "Project Completion Date": "03\/31\/2023", "Waste Name": null, "Contaminants": null }, "geometry": { "type": "Point", "coordinates": [ -74.13727582, 40.62455356 ] } },
{ "type": "Feature", "properties": { "Program Number": "224002", "Program Type": "HW", "Program Facility Name": "Pennsylvania Avenue Landfill", "Site Class": "04", "Address1": "Pennsylvania Avenue & Shore Parkway", "Address2": null, "County": "Kings", "ZIPCode": "11239", "Project Name": "Remedial Design", "Project Completion Date": "09\/21\/2000", "Waste Name": "PCB", "Contaminants": null }, "geometry": { "type": "Point", "coordinates": [ -73.87458367, 40.64090396 ] } },
{ "type": "Feature", "properties": { "Program Number": "241063", "Program Type": "HW", "Program Facility Name": "K - Jamaica Gas and Light MGP", "Site Class": "A", "Address1": "Beaver Rd., & 158th St.", "Address2": null, "County": "Queens", "ZIPCode": "11451", "Project Name": null, "Project Completion Date": "12\/30\/2022", "Waste Name": null, "Contaminants": "coal tar" }, "geometry": { "type": "Point", "coordinates": [ -73.803197974, 40.701044184 ] } },
{ "type": "Feature", "properties": { "Program Number": "243012", "Program Type": "HW", "Program Facility Name": "Pergament Mall \/ Corniche Dry Cleaners", "Site Class": "04", "Address1": "Richmond Avenue & Platinum Avenue", "Address2": null, "County": "Richmond", "ZIPCode": "10314", "Project Name": "Site Characterization", "Project Completion Date": "03\/01\/1993", "Waste Name": null, "Contaminants": "trichloroethene (TCE)" }, "geometry": { "type": "Point", "coordinates": [ -74.16509244, 40.57640824 ] } },
{ "type": "Feature", "properties": { "Program Number": "241004", "Program Type": "HW", "Program Facility Name": "Edgemere Landfill", "Site Class": "04", "Address1": "Beach Channel Drive and Beach 51st Street", "Address2": null, "County": "Queens", "ZIPCode": "11691", "Project Name": "Remedial Investigation", "Project Completion Date": "03\/01\/1993", "Waste Name": null, "Contaminants": null }, "geometry": { "type": "Point", "coordinates": [ -73.77928179, 40.60560431 ] } },
{ "type": "Feature", "properties": { "Program Number": "224046", "Program Type": "HW", "Program Facility Name": "K - Metropolitan MGP", "Site Class": "02", "Address1": "124-136 Second Ave", "Address2": null, "County": "Kings", "ZIPCode": "11215", "Project Name": null, "Project Completion Date": "06\/30\/2022", "Waste Name": null, "Contaminants": null }, "geometry": { "type": "Point", "coordinates": [ -73.996811574, 40.672179062 ] } },
{ "type": "Feature", "properties": { "Program Number": "241127", "Program Type": "HW", "Program Facility Name": "Bridge Cleaners", "Site Class": "02", "Address1": "39-26 30th Street", "Address2": null, "County": "Queens", "ZIPCode": "11101", "Project Name": null, "Project Completion Date": "03\/27\/2022", "Waste Name": null, "Contaminants": "tetrachloroethene (PCE)" }, "geometry": { "type": "Point", "coordinates": [ -73.934591667, 40.7525 ] } },
{ "type": "Feature", "properties": { "Program Number": "231114", "Program Type": "HW", "Program Facility Name": "CE - E. 111th St. Works", "Site Class": "A", "Address1": "East 110th - East 112th Sts.", "Address2": null, "County": "New York", "ZIPCode": "10029", "Project Name": null, "Project Completion Date": "04\/30\/2025", "Waste Name": null, "Contaminants": null }, "geometry": { "type": "Point", "coordinates": [ -73.938368956, 40.79282251 ] } },
{ "type": "Feature", "properties": { "Program Number": "203004", "Program Type": "HW", "Program Facility Name": "1296 Sheridan Avenue", "Site Class": "C", "Address1": "1296 Sheridan Avenue", "Address2": null, "County": "Bronx", "ZIPCode": "10456-", "Project Name": "Remedial Action", "Project Completion Date": "11\/27\/2002", "Waste Name": null, "Contaminants": null }, "geometry": { "type": "Point", "coordinates": [ -73.91435787, 40.8360776 ] } },
{ "type": "Feature", "properties": { "Program Number": "231004", "Program Type": "HW", "Program Facility Name": "2350 Fifth Ave., New York (aka, PS 141)", "Site Class": "04", "Address1": "2340 & 2350 Fifth Avenue", "Address2": null, "County": "New York", "ZIPCode": "10037", "Project Name": "Remedial Design", "Project Completion Date": "09\/25\/2013", "Waste Name": null, "Contaminants": null }, "geometry": { "type": "Point", "coordinates": [ -73.93517826, 40.81709797 ] } },
{ "type": "Feature", "properties": { "Program Number": "231073", "Program Type": "HW", "Program Facility Name": "Former Guardian Cleaners", "Site Class": "C", "Address1": "27-35 West 24th Street", "Address2": null, "County": "New York", "ZIPCode": "10010", "Project Name": "Site Characterization", "Project Completion Date": "08\/27\/2015", "Waste Name": null, "Contaminants": "tetrachloroethene (PCE)" }, "geometry": { "type": "Point", "coordinates": [ -73.990844932, 40.743185712 ] } },
{ "type": "Feature", "properties": { "Program Number": "241114", "Program Type": "HW", "Program Facility Name": "Former Drape Master", "Site Class": "02", "Address1": "89-01 Astoria Boulevard", "Address2": null, "County": "Queens", "ZIPCode": "11369", "Project Name": "Site Characterization", "Project Completion Date": "08\/22\/2011", "Waste Name": null, "Contaminants": "cis-1,2-dichloroethene" }, "geometry": { "type": "Point", "coordinates": [ -73.879930556, 40.764008333 ] } },
{ "type": "Feature", "properties": { "Program Number": "224141", "Program Type": "HW", "Program Facility Name": "1199 Sutter Avenue", "Site Class": "N", "Address1": "1199 Sutter Avenue", "Address2": null, "County": "Kings", "ZIPCode": "11208", "Project Name": "Site Characterization", "Project Completion Date": "03\/08\/2013", "Waste Name": null, "Contaminants": "vinyl chloride" }, "geometry": { "type": "Point", "coordinates": [ -73.872986111, 40.672777778 ] } },
{ "type": "Feature", "properties": { "Program Number": "243037", "Program Type": "HW", "Program Facility Name": "Goethals Bridge Property", "Site Class": "A", "Address1": "Goethals Road North", "Address2": null, "County": "Richmond", "ZIPCode": "10301", "Project Name": "Remedial Design", "Project Completion Date": "12\/17\/2014", "Waste Name": null, "Contaminants": null }, "geometry": { "type": "Point", "coordinates": [ -74.190569, 40.632464 ] } },
{ "type": "Feature", "properties": { "Program Number": "224063", "Program Type": "HW", "Program Facility Name": "K - Front St. Station", "Site Class": "A", "Address1": "Bridge St, Front St, Gold St & York St", "Address2": null, "County": "Kings", "ZIPCode": "11201", "Project Name": "Site Characterization", "Project Completion Date": "07\/17\/2013", "Waste Name": null, "Contaminants": "1,3,5-trimethylbenzene" }, "geometry": { "type": "Point", "coordinates": [ -73.983975783, 40.702026008 ] } },
{ "type": "Feature", "properties": { "Program Number": "243004", "Program Type": "HW", "Program Facility Name": "Nassau Recycling Corp.", "Site Class": "N", "Address1": "286 Richmond Valley Road", "Address2": null, "County": "Richmond", "ZIPCode": "10307", "Project Name": "Remedial Action", "Project Completion Date": "12\/01\/1986", "Waste Name": null, "Contaminants": "lead" }, "geometry": { "type": "Point", "coordinates": [ -74.238506917, 40.521130051 ] } },
{ "type": "Feature", "properties": { "Program Number": "241124", "Program Type": "HW", "Program Facility Name": "Purr-fect Dry Cleaners", "Site Class": "02", "Address1": "232-17 Merrick Boulevard", "Address2": null, "County": "Queens", "ZIPCode": "11413", "Project Name": "Site Characterization", "Project Completion Date": "01\/31\/2013", "Waste Name": null, "Contaminants": "tetrachloroethene (PCE)" }, "geometry": { "type": "Point", "coordinates": [ -73.736955556, 40.675294444 ] } },
{ "type": "Feature", "properties": { "Program Number": "231008", "Program Type": "HW", "Program Facility Name": "1st Avenue and East 90th Street", "Site Class": "N", "Address1": "1st Avenue and East 90th Street", "Address2": null, "County": "New York", "ZIPCode": "10128-", "Project Name": "Site Characterization", "Project Completion Date": "09\/21\/2021", "Waste Name": null, "Contaminants": "tetrachloroethene (PCE)" }, "geometry": { "type": "Point", "coordinates": [ -73.947259369, 40.778932444 ] } },
{ "type": "Feature", "properties": { "Program Number": "224055", "Program Type": "HW", "Program Facility Name": "K - Williamsburg Works", "Site Class": "A", "Address1": "Kent Ave & 12th Street", "Address2": null, "County": "Kings", "ZIPCode": "11211-", "Project Name": null, "Project Completion Date": "06\/30\/2015", "Waste Name": null, "Contaminants": "coal tar" }, "geometry": { "type": "Point", "coordinates": [ -73.960555556, 40.723611111 ] } },
{ "type": "Feature", "properties": { "Program Number": "241030", "Program Type": "HW", "Program Facility Name": "90-30 Metropolitan Avenue Site", "Site Class": "N", "Address1": "90-30 Metropolitan Avenue", "Address2": null, "County": "Queens", "ZIPCode": "11385", "Project Name": null, "Project Completion Date": "08\/07\/2002", "Waste Name": null, "Contaminants": null }, "geometry": { "type": "Point", "coordinates": [ -73.85838052, 40.71110986 ] } },
{ "type": "Feature", "properties": { "Program Number": "203009", "Program Type": "HW", "Program Facility Name": "Former Melrose Avenue Dry Cleaner", "Site Class": "02", "Address1": "753 Melrose Avenue", "Address2": null, "County": "Bronx", "ZIPCode": "10451", "Project Name": null, "Project Completion Date": "12\/31\/2023", "Waste Name": null, "Contaminants": null }, "geometry": { "type": "Point", "coordinates": [ -73.915658333, 40.821236111 ] } },
{ "type": "Feature", "properties": { "Program Number": "231078", "Program Type": "HW", "Program Facility Name": "West 29th Street GW", "Site Class": "N", "Address1": "West 29th Street at 10th Avenue", "Address2": null, "County": "New York", "ZIPCode": "10001", "Project Name": "Site Characterization", "Project Completion Date": "12\/31\/2013", "Waste Name": null, "Contaminants": "1,1 dichloroethene" }, "geometry": { "type": "Point", "coordinates": [ -74.001716195, 40.752031408 ] } },
{ "type": "Feature", "properties": { "Program Number": "224211", "Program Type": "HW", "Program Facility Name": "Former Goodman Brothers Steel Drum Co.", "Site Class": "02", "Address1": "18 Division Place", "Address2": null, "County": "Kings", "ZIPCode": "11222", "Project Name": null, "Project Completion Date": "02\/04\/2022", "Waste Name": null, "Contaminants": "xylene (mixed)" }, "geometry": { "type": "Point", "coordinates": [ -73.940048, 40.720108 ] } },
{ "type": "Feature", "properties": { "Program Number": "231068", "Program Type": "HW", "Program Facility Name": "East 60th Street, Con Ed Steam Station", "Site Class": "N", "Address1": "514 East 60th Street", "Address2": null, "County": "New York", "ZIPCode": "10022", "Project Name": null, "Project Completion Date": null, "Waste Name": null, "Contaminants": "mercury" }, "geometry": { "type": "Point", "coordinates": [ -73.958980328, 40.758754058 ] } },
{ "type": "Feature", "properties": { "Program Number": "241197", "Program Type": "HW", "Program Facility Name": "32-01 57th Street", "Site Class": "P", "Address1": "32-01 57th Street", "Address2": null, "County": "Queens", "ZIPCode": "11377", "Project Name": "Site Characterization", "Project Completion Date": "06\/15\/2017", "Waste Name": null, "Contaminants": null }, "geometry": { "type": "Point", "coordinates": [ -73.90398, 40.755734 ] } },
{ "type": "Feature", "properties": { "Program Number": "224011", "Program Type": "HW", "Program Facility Name": "Rear of Bush Terminal Building", "Site Class": "03", "Address1": "47th to 52nd Street and 1st Ave to Gowanus Bay", "Address2": null, "County": "Kings", "ZIPCode": "11232", "Project Name": "Site Characterization", "Project Completion Date": "12\/01\/1990", "Waste Name": "PLATING WASTES", "Contaminants": "anthracene" }, "geometry": { "type": "Point", "coordinates": [ -74.01818388, 40.65170031 ] } },
{ "type": "Feature", "properties": { "Program Number": "241117", "Program Type": "HW", "Program Facility Name": "Newtown Creek", "Site Class": "02", "Address1": "Newtown Creek (between Brooklyn and Queens)", "Address2": null, "County": "Queens", "ZIPCode": "11378", "Project Name": null, "Project Completion Date": "12\/31\/2024", "Waste Name": null, "Contaminants": "polychlorinated biphenyls (PCB)" }, "geometry": { "type": "Point", "coordinates": [ -73.92899, 40.727921667 ] } },
{ "type": "Feature", "properties": { "Program Number": "241010", "Program Type": "HW", "Program Facility Name": "Radium Chemical", "Site Class": "N", "Address1": "60-06 27th Avenue", "Address2": null, "County": "Queens", "ZIPCode": null, "Project Name": "Remedial Action", "Project Completion Date": "10\/01\/1989", "Waste Name": null, "Contaminants": null }, "geometry": { "type": "Point", "coordinates": [ -73.901998843, 40.760412849 ] } },
{ "type": "Feature", "properties": { "Program Number": "231143", "Program Type": "HW", "Program Facility Name": "53 Howard Street", "Site Class": "N", "Address1": "53 Howard Street \/ 309 Canal Street", "Address2": null, "County": "New York", "ZIPCode": "10013", "Project Name": "Site Characterization", "Project Completion Date": "09\/02\/2021", "Waste Name": null, "Contaminants": "tetrachloroethene (PCE)" }, "geometry": { "type": "Point", "coordinates": [ -74.002166667, 40.720155556 ] } },
{ "type": "Feature", "properties": { "Program Number": "241009", "Program Type": "HW", "Program Facility Name": "Levco Metals", "Site Class": "C", "Address1": "34-11 36th Street", "Address2": null, "County": "Queens", "ZIPCode": "11106", "Project Name": "Site Characterization", "Project Completion Date": "07\/16\/2010", "Waste Name": null, "Contaminants": null }, "geometry": { "type": "Point", "coordinates": [ -73.923365104, 40.757100101 ] } },
{ "type": "Feature", "properties": { "Program Number": "243019", "Program Type": "HW", "Program Facility Name": "Charlton Cleaners", "Site Class": "02", "Address1": "24 Barrett Avenue", "Address2": null, "County": "Richmond", "ZIPCode": "10301", "Project Name": null, "Project Completion Date": "08\/31\/2022", "Waste Name": null, "Contaminants": "cis-1,2-dichloroethene" }, "geometry": { "type": "Point", "coordinates": [ -74.13628483, 40.62530288 ] } },
{ "type": "Feature", "properties": { "Program Number": "203110", "Program Type": "HW", "Program Facility Name": "CE - Zerega Ave. Station", "Site Class": "A", "Address1": "Zerega Ave. between Blackrock & Watson Ave's", "Address2": null, "County": "Bronx", "ZIPCode": "10462", "Project Name": null, "Project Completion Date": "07\/31\/2022", "Waste Name": null, "Contaminants": "coal tar" }, "geometry": { "type": "Point", "coordinates": [ -73.844990249, 40.830042885 ] } },
{ "type": "Feature", "properties": { "Program Number": "224016", "Program Type": "HW", "Program Facility Name": "BQE\/Ansbacher Color & Dye Factory", "Site Class": "03", "Address1": "Meeker Avenue", "Address2": null, "County": "Kings", "ZIPCode": null, "Project Name": "Remedial Action", "Project Completion Date": "08\/01\/1991", "Waste Name": null, "Contaminants": null }, "geometry": { "type": "Point", "coordinates": [ -73.95288044, 40.7145014 ] } },
{ "type": "Feature", "properties": { "Program Number": "224010", "Program Type": "HW", "Program Facility Name": "Silver Rod Drug Co.", "Site Class": "N", "Address1": "114 Beverly Road", "Address2": null, "County": "Kings", "ZIPCode": "11218", "Project Name": "Site Characterization", "Project Completion Date": "12\/31\/1991", "Waste Name": "AND WASTE SOLVENTS.", "Contaminants": null }, "geometry": { "type": "Point", "coordinates": [ -73.97875803, 40.64262291 ] } },
{ "type": "Feature", "properties": { "Program Number": "224139", "Program Type": "HW", "Program Facility Name": "491 Wortman Avenue", "Site Class": "N", "Address1": "491 Wortman Avenue", "Address2": null, "County": "Kings", "ZIPCode": "11208", "Project Name": null, "Project Completion Date": "07\/19\/2012", "Waste Name": null, "Contaminants": "1,1,2-trichlorethylene" }, "geometry": { "type": "Point", "coordinates": [ -73.875555556, 40.661111111 ] } },
{ "type": "Feature", "properties": { "Program Number": "203064", "Program Type": "HW", "Program Facility Name": "Bartow Cleaners-Co-op City", "Site Class": "P", "Address1": "2049 Bartow Avenue", "Address2": null, "County": "Bronx", "ZIPCode": "10475", "Project Name": "Remedial Design", "Project Completion Date": "07\/09\/2013", "Waste Name": null, "Contaminants": null }, "geometry": { "type": "Point", "coordinates": [ -73.829440435, 40.869811648 ] } },
{ "type": "Feature", "properties": { "Program Number": "231113", "Program Type": "HW", "Program Facility Name": "CE - E. 99th St. Works", "Site Class": "A", "Address1": "East 98th - East 99th Sts.", "Address2": null, "County": "New York", "ZIPCode": "10029", "Project Name": null, "Project Completion Date": "09\/30\/2022", "Waste Name": null, "Contaminants": null }, "geometry": { "type": "Point", "coordinates": [ -73.944991369, 40.785111387 ] } },
{ "type": "Feature", "properties": { "Program Number": "224151", "Program Type": "HW", "Program Facility Name": "Former Gateway French Cleaner", "Site Class": "N", "Address1": "3375-3377 Neptune Avenue", "Address2": null, "County": "Kings", "ZIPCode": "11224", "Project Name": null, "Project Completion Date": null, "Waste Name": null, "Contaminants": null }, "geometry": { "type": "Point", "coordinates": [ -74.001427778, 40.577388889 ] } },
{ "type": "Feature", "properties": { "Program Number": "243020", "Program Type": "HW", "Program Facility Name": "Carol Cleaners, Staten Island Mall", "Site Class": "02", "Address1": "280 Platinum Avenue", "Address2": null, "County": "Richmond", "ZIPCode": "10314", "Project Name": "Remedial Investigation", "Project Completion Date": "03\/28\/2012", "Waste Name": "TETRACHLOROETHYLENE (PCE OR \"PERC.\") F002 WASTE", "Contaminants": "tetrachloroethene (PCE)" }, "geometry": { "type": "Point", "coordinates": [ -74.16428538, 40.57860054 ] } },
{ "type": "Feature", "properties": { "Program Number": "241120", "Program Type": "HW", "Program Facility Name": "New York Dry Cleaners", "Site Class": "02", "Address1": "90-11 31st Avenue", "Address2": null, "County": "Queens", "ZIPCode": "11369", "Project Name": null, "Project Completion Date": "04\/03\/2018", "Waste Name": null, "Contaminants": null }, "geometry": { "type": "Point", "coordinates": [ -73.877997875, 40.76033073 ] } },
{ "type": "Feature", "properties": { "Program Number": "224192", "Program Type": "HW", "Program Facility Name": "Former ACME Steel Partition Co.", "Site Class": "C", "Address1": "513 PORTER AVENUE", "Address2": null, "County": "Kings", "ZIPCode": "11222", "Project Name": "Site Characterization", "Project Completion Date": "09\/04\/2014", "Waste Name": null, "Contaminants": "lead" }, "geometry": { "type": "Point", "coordinates": [ -73.936455, 40.723881 ] } },
{ "type": "Feature", "properties": { "Program Number": "241036", "Program Type": "HW", "Program Facility Name": "75-09 Woodhaven Boulevard (Home Depot Off-site)", "Site Class": "02", "Address1": "75-09 Woodhaven Blvd", "Address2": null, "County": "Queens", "ZIPCode": "11374", "Project Name": null, "Project Completion Date": "10\/31\/2024", "Waste Name": null, "Contaminants": null }, "geometry": { "type": "Point", "coordinates": [ -73.85969569, 40.71183084 ] } },
{ "type": "Feature", "properties": { "Program Number": "224051", "Program Type": "HW", "Program Facility Name": "K - Fulton Works", "Site Class": "A", "Address1": "Nevins, DeGraw & Sackett Sts.", "Address2": null, "County": "Kings", "ZIPCode": "11201-", "Project Name": "Remedial Design", "Project Completion Date": "03\/11\/2019", "Waste Name": null, "Contaminants": null }, "geometry": { "type": "Point", "coordinates": [ -73.986111111, 40.68 ] } },
{ "type": "Feature", "properties": { "Program Number": "224131", "Program Type": "HW", "Program Facility Name": "ACME Steel\/Metal Works", "Site Class": "02", "Address1": "95 Lombardy Street", "Address2": null, "County": "Kings", "ZIPCode": "11222", "Project Name": null, "Project Completion Date": "12\/31\/2023", "Waste Name": null, "Contaminants": "trichloroethene (TCE)" }, "geometry": { "type": "Point", "coordinates": [ -73.936985, 40.723002 ] } },
{ "type": "Feature", "properties": { "Program Number": "241222", "Program Type": "HW", "Program Facility Name": "Arch Street Yards (LIRR)", "Site Class": "A", "Address1": "Arch Street and Jackson Avenue", "Address2": null, "County": "Queens", "ZIPCode": "11101", "Project Name": null, "Project Completion Date": "06\/30\/2022", "Waste Name": null, "Contaminants": "tetrachloroethene (PCE)" }, "geometry": { "type": "Point", "coordinates": [ -73.94720163, 40.74374686 ] } },
{ "type": "Feature", "properties": { "Program Number": "243008", "Program Type": "HW", "Program Facility Name": "R.Baker & Son Machinery Dismantlers, Inc", "Site Class": "02", "Address1": "250 South Washington Ave. (aka 250 Goethals Rd N)", "Address2": null, "County": "Richmond", "ZIPCode": "10301", "Project Name": "Remedial Design", "Project Completion Date": "07\/30\/2015", "Waste Name": null, "Contaminants": null }, "geometry": { "type": "Point", "coordinates": [ -74.18788354, 40.63010053 ] } },
{ "type": "Feature", "properties": { "Program Number": "241140", "Program Type": "HW", "Program Facility Name": "Former Tiffanys Studios", "Site Class": "C", "Address1": "96-18 43rd Avenue", "Address2": null, "County": "Queens", "ZIPCode": "11368", "Project Name": "Remedial Action", "Project Completion Date": "09\/08\/2015", "Waste Name": null, "Contaminants": null }, "geometry": { "type": "Point", "coordinates": [ -73.866772222, 40.745580556 ] } },
{ "type": "Feature", "properties": { "Program Number": "224025", "Program Type": "HW", "Program Facility Name": "Davidson Pipe Supply Company", "Site Class": "N", "Address1": "3rd Ave & 37th Street", "Address2": null, "County": "Kings", "ZIPCode": null, "Project Name": "Site Characterization", "Project Completion Date": "05\/01\/1997", "Waste Name": null, "Contaminants": null }, "geometry": { "type": "Point", "coordinates": [ -74.007171957, 40.655043 ] } },
{ "type": "Feature", "properties": { "Program Number": "231071", "Program Type": "HW", "Program Facility Name": "West Block #57 Project", "Site Class": "N", "Address1": "830 12th Avenue", "Address2": null, "County": "New York", "ZIPCode": "10001", "Project Name": "Remedial Action", "Project Completion Date": "06\/08\/2011", "Waste Name": null, "Contaminants": null }, "geometry": { "type": "Point", "coordinates": [ -73.993669444, 40.771738889 ] } },
{ "type": "Feature", "properties": { "Program Number": "224052", "Program Type": "HW", "Program Facility Name": "K - Greenpoint MGP - Energy Center", "Site Class": "02", "Address1": "287 MASPETH AVENUE", "Address2": null, "County": "Kings", "ZIPCode": "11211", "Project Name": null, "Project Completion Date": "04\/05\/2013", "Waste Name": null, "Contaminants": "benzene" }, "geometry": { "type": "Point", "coordinates": [ -73.930338373, 40.721937737 ] } },
{ "type": "Feature", "properties": { "Program Number": "241179", "Program Type": "HW", "Program Facility Name": "34-14 31st Street", "Site Class": "C", "Address1": "34-14 31st Street", "Address2": null, "County": "Queens", "ZIPCode": "11106", "Project Name": "Site Characterization", "Project Completion Date": "07\/13\/2016", "Waste Name": null, "Contaminants": null }, "geometry": { "type": "Point", "coordinates": [ -73.927888889, 40.759416667 ] } },
{ "type": "Feature", "properties": { "Program Number": "231057", "Program Type": "HW", "Program Facility Name": "Celebrity French Cleaner & Tailors", "Site Class": "N", "Address1": "1427 York Avenue", "Address2": null, "County": "New York", "ZIPCode": "10021", "Project Name": "Site Characterization", "Project Completion Date": "03\/03\/2010", "Waste Name": null, "Contaminants": null }, "geometry": { "type": "Point", "coordinates": [ -73.952334019, 40.769331028 ] } },
{ "type": "Feature", "properties": { "Program Number": "241102", "Program Type": "HW", "Program Facility Name": "Jung Sun Laundry Site", "Site Class": "02", "Address1": "37-10 24th Street", "Address2": null, "County": "Queens", "ZIPCode": "11101-3520", "Project Name": null, "Project Completion Date": "06\/30\/2023", "Waste Name": null, "Contaminants": null }, "geometry": { "type": "Point", "coordinates": [ -73.936048803, 40.757300009 ] } },
{ "type": "Feature", "properties": { "Program Number": "241180", "Program Type": "HW", "Program Facility Name": "Wolff-Alport Chemical Company", "Site Class": "02", "Address1": "1127-1129 Irving Avenue", "Address2": null, "County": "Queens", "ZIPCode": "11385", "Project Name": "Remedial Investigation", "Project Completion Date": "09\/27\/2017", "Waste Name": null, "Contaminants": null }, "geometry": { "type": "Point", "coordinates": [ -73.902343, 40.692399 ] } },
{ "type": "Feature", "properties": { "Program Number": "224017", "Program Type": "HW", "Program Facility Name": "Varick Avenue", "Site Class": "N", "Address1": "165 Varick Avenue", "Address2": null, "County": "Kings", "ZIPCode": "10013", "Project Name": "Remedial Action", "Project Completion Date": "01\/01\/1994", "Waste Name": null, "Contaminants": null }, "geometry": { "type": "Point", "coordinates": [ -73.929622082, 40.711368133 ] } },
{ "type": "Feature", "properties": { "Program Number": "203074", "Program Type": "HW", "Program Facility Name": "1100 Commerce Avenue", "Site Class": "C", "Address1": "1100 Commerce Street", "Address2": null, "County": "Bronx", "ZIPCode": "10462", "Project Name": "Site Characterization", "Project Completion Date": "03\/25\/2022", "Waste Name": null, "Contaminants": null }, "geometry": { "type": "Point", "coordinates": [ -73.843842, 40.83157 ] } },
{ "type": "Feature", "properties": { "Program Number": "203065", "Program Type": "HW", "Program Facility Name": "Miss Penny Cleaners-Co-op City", "Site Class": "N", "Address1": "173 Dreiser Loop", "Address2": null, "County": "Bronx", "ZIPCode": "10475", "Project Name": "Site Characterization", "Project Completion Date": "10\/01\/2018", "Waste Name": null, "Contaminants": null }, "geometry": { "type": "Point", "coordinates": [ -73.829369712, 40.877004868 ] } },
{ "type": "Feature", "properties": { "Program Number": "241145", "Program Type": "HW", "Program Facility Name": "Queens Blvd and 52nd St GW", "Site Class": "N", "Address1": "Intersection of Queens Blvd and 52nd St", "Address2": null, "County": "Queens", "ZIPCode": "11377", "Project Name": "Site Characterization", "Project Completion Date": "06\/10\/2019", "Waste Name": null, "Contaminants": null }, "geometry": { "type": "Point", "coordinates": [ -73.912774455, 40.742764725 ] } },
{ "type": "Feature", "properties": { "Program Number": "241047", "Program Type": "HW", "Program Facility Name": "Cineplex Odeon Cinema 5", "Site Class": "P", "Address1": "183-15 Horace Harding Expressway", "Address2": null, "County": "Queens", "ZIPCode": "11365", "Project Name": "Site Characterization", "Project Completion Date": "04\/01\/2022", "Waste Name": null, "Contaminants": null }, "geometry": { "type": "Point", "coordinates": [ -73.790297, 40.740469 ] } },
{ "type": "Feature", "properties": { "Program Number": "241219", "Program Type": "HW", "Program Facility Name": "27-10 49th Avenue-OER", "Site Class": "N", "Address1": "27-10 49th Avenue", "Address2": null, "County": "Queens", "ZIPCode": "11101", "Project Name": null, "Project Completion Date": "10\/16\/2019", "Waste Name": null, "Contaminants": null }, "geometry": { "type": "Point", "coordinates": [ -73.94209, 40.741115 ] } },
{ "type": "Feature", "properties": { "Program Number": "241130", "Program Type": "RCRA", "Program Facility Name": "LIRR - Morris Park Repair", "Site Class": "A", "Address1": "121st Street and Atlantic Avenue", "Address2": null, "County": "Queens", "ZIPCode": "11423", "Project Name": "Remedial Investigation", "Project Completion Date": "03\/30\/2015", "Waste Name": null, "Contaminants": "tetrachloroethene (PCE)" }, "geometry": { "type": "Point", "coordinates": [ -73.823306285, 40.696993784 ] } },
{ "type": "Feature", "properties": { "Program Number": "241097", "Program Type": "HW", "Program Facility Name": "Former W.L.K. Corp.", "Site Class": "02", "Address1": "58-30 57TH STREET", "Address2": null, "County": "Queens", "ZIPCode": "11378", "Project Name": null, "Project Completion Date": "09\/30\/2022", "Waste Name": null, "Contaminants": "tetrachloroethene (PCE)" }, "geometry": { "type": "Point", "coordinates": [ -73.91300559, 40.720492797 ] } },
{ "type": "Feature", "properties": { "Program Number": "243023", "Program Type": "HW", "Program Facility Name": "K - Clifton MGP - Staten Island", "Site Class": "A", "Address1": "25 & 40 Willow Ave", "Address2": null, "County": "Richmond", "ZIPCode": "10305-", "Project Name": "Remedial Investigation", "Project Completion Date": "12\/22\/2006", "Waste Name": null, "Contaminants": "coal tar" }, "geometry": { "type": "Point", "coordinates": [ -74.07062511, 40.61918908 ] } },
{ "type": "Feature", "properties": { "Program Number": "231110", "Program Type": "HW", "Program Facility Name": "CE - E. 11th St. MGP", "Site Class": "A", "Address1": "East 11th - East 13th Sts.", "Address2": null, "County": "New York", "ZIPCode": "10029", "Project Name": null, "Project Completion Date": "06\/30\/2022", "Waste Name": null, "Contaminants": "ethylbenzene" }, "geometry": { "type": "Point", "coordinates": [ -73.974062101, 40.726409244 ] } },
{ "type": "Feature", "properties": { "Program Number": "203002", "Program Type": "HW", "Program Facility Name": "MTA Gun Hill Bus Complex and Adj. Lots", "Site Class": "N", "Address1": "Lots bounded by Gun Hill Road, Bartow Avenue", "Address2": null, "County": "Bronx", "ZIPCode": "10469", "Project Name": "Site Characterization", "Project Completion Date": "01\/01\/1988", "Waste Name": "UNKNOWN", "Contaminants": null }, "geometry": { "type": "Point", "coordinates": [ -73.833755638, 40.865527297 ] } },
{ "type": "Feature", "properties": { "Program Number": "243022", "Program Type": "HW", "Program Facility Name": "Con Ed. Arthur Kill Station, Water Front", "Site Class": "C", "Address1": "4401 VICTORY BOULEVARD", "Address2": null, "County": "Richmond", "ZIPCode": "10314", "Project Name": "Remedial Design", "Project Completion Date": "02\/19\/2008", "Waste Name": "PCBS  (B001, B003, B007 WASTES)", "Contaminants": "PCB aroclor 1260" }, "geometry": { "type": "Point", "coordinates": [ -74.20128859, 40.59169979 ] } },
{ "type": "Feature", "properties": { "Program Number": "241033", "Program Type": "HW", "Program Facility Name": "Ozone Industries", "Site Class": "02", "Address1": "100th St. Between 101st and 103rd Avenues", "Address2": null, "County": "Queens", "ZIPCode": "11417-", "Project Name": "Remedial Investigation", "Project Completion Date": "02\/10\/2010", "Waste Name": "Trichloroethene (F002 Waste)", "Contaminants": "trichloroethene (TCE)" }, "geometry": { "type": "Point", "coordinates": [ -73.841935, 40.684533 ] } },
{ "type": "Feature", "properties": { "Program Number": "224138", "Program Type": "HW", "Program Facility Name": "Greenpoint Manuf. and Design Ctr.", "Site Class": "N", "Address1": "1155 Manhattan Avenue", "Address2": null, "County": "Kings", "ZIPCode": "11222", "Project Name": "Site Characterization", "Project Completion Date": "03\/23\/2011", "Waste Name": null, "Contaminants": "tetrachloroethene (PCE)" }, "geometry": { "type": "Point", "coordinates": [ -73.955954, 40.738503 ] } },
{ "type": "Feature", "properties": { "Program Number": "203054", "Program Type": "HW", "Program Facility Name": "Bathgate Avenue\/E. 174th Street Plume Trackdown", "Site Class": "N", "Address1": "174th Street", "Address2": null, "County": "Bronx", "ZIPCode": "10033", "Project Name": "Site Characterization", "Project Completion Date": "06\/23\/2011", "Waste Name": null, "Contaminants": null }, "geometry": { "type": "Point", "coordinates": [ -73.898694444, 40.843888889 ] } },
{ "type": "Feature", "properties": { "Program Number": "241031", "Program Type": "HW", "Program Facility Name": "Kliegman Brothers", "Site Class": "04", "Address1": "76-01 77th Avenue", "Address2": null, "County": "Queens", "ZIPCode": "11385", "Project Name": "Remedial Action", "Project Completion Date": "10\/31\/2016", "Waste Name": null, "Contaminants": null }, "geometry": { "type": "Point", "coordinates": [ -73.87345255, 40.70672693 ] } },
{ "type": "Feature", "properties": { "Program Number": "241126", "Program Type": "HW", "Program Facility Name": "Best-DDK Cleaners", "Site Class": "N", "Address1": "38-68 13th Street", "Address2": null, "County": "Queens", "ZIPCode": "11101", "Project Name": null, "Project Completion Date": "11\/10\/2021", "Waste Name": null, "Contaminants": "tetrachloroethene (PCE)" }, "geometry": { "type": "Point", "coordinates": [ -73.941666667, 40.756388889 ] } },
{ "type": "Feature", "properties": { "Program Number": "224137", "Program Type": "HW", "Program Facility Name": "Kent Avenue Generating Station", "Site Class": "N", "Address1": "500 Kent Avenue", "Address2": null, "County": "Kings", "ZIPCode": "11211", "Project Name": null, "Project Completion Date": "07\/16\/2010", "Waste Name": null, "Contaminants": "arsenic" }, "geometry": { "type": "Point", "coordinates": [ -73.968888889, 40.706388889 ] } },
{ "type": "Feature", "properties": { "Program Number": "224053", "Program Type": "HW", "Program Facility Name": "K - Peoples Works", "Site Class": "A", "Address1": "Kent Ave. S. 10th St., S. 11th St.", "Address2": null, "County": "Kings", "ZIPCode": "11211", "Project Name": null, "Project Completion Date": "10\/28\/2020", "Waste Name": null, "Contaminants": "coal tar" }, "geometry": { "type": "Point", "coordinates": [ -73.969042621, 40.707966212 ] } },
{ "type": "Feature", "properties": { "Program Number": "224050", "Program Type": "HW", "Program Facility Name": "K - Equity Works", "Site Class": "02", "Address1": "Maspeth and Vandervort Aves.", "Address2": null, "County": "Kings", "ZIPCode": "11211-", "Project Name": null, "Project Completion Date": "02\/24\/2029", "Waste Name": null, "Contaminants": null }, "geometry": { "type": "Point", "coordinates": [ -73.93290215, 40.716840483 ] } },
{ "type": "Feature", "properties": { "Program Number": "224325", "Program Type": "HW", "Program Facility Name": "3110 Quentin Road", "Site Class": "P", "Address1": "3110 Quentin Road", "Address2": null, "County": "Kings", "ZIPCode": "11234", "Project Name": null, "Project Completion Date": "01\/31\/2023", "Waste Name": null, "Contaminants": null }, "geometry": { "type": "Point", "coordinates": [ -73.93986024, 40.612342912 ] } },
{ "type": "Feature", "properties": { "Program Number": "241037", "Program Type": "HW", "Program Facility Name": "White Sun Cleaners", "Site Class": "N", "Address1": "47-38 34th Street", "Address2": null, "County": "Queens", "ZIPCode": "11101-", "Project Name": "Site Characterization", "Project Completion Date": "08\/26\/2003", "Waste Name": null, "Contaminants": null }, "geometry": { "type": "Point", "coordinates": [ -73.93169301, 40.74142935 ] } },
{ "type": "Feature", "properties": { "Program Number": "224243", "Program Type": "HW", "Program Facility Name": "I.D.A. Cleaners", "Site Class": "P", "Address1": "579 Kings Highway", "Address2": null, "County": "Kings", "ZIPCode": "11223", "Project Name": null, "Project Completion Date": "12\/31\/2022", "Waste Name": null, "Contaminants": null }, "geometry": { "type": "Point", "coordinates": [ -73.968, 40.60525 ] } },
{ "type": "Feature", "properties": { "Program Number": "203130", "Program Type": "HW", "Program Facility Name": "Former Adhesive Products Corporation", "Site Class": "P", "Address1": "1660 Boone Avenue", "Address2": null, "County": "Bronx", "ZIPCode": "10460", "Project Name": null, "Project Completion Date": "12\/31\/2023", "Waste Name": null, "Contaminants": "trichloroethene (TCE)" }, "geometry": { "type": "Point", "coordinates": [ -73.884055556, 40.834358333 ] } },
{ "type": "Feature", "properties": { "Program Number": "224143", "Program Type": "HW", "Program Facility Name": "Former Moore McCormack Lines-Continental Terminals", "Site Class": "N", "Address1": "730 3rd Avenue", "Address2": null, "County": "Kings", "ZIPCode": "12201", "Project Name": "Site Characterization", "Project Completion Date": "11\/23\/2010", "Waste Name": null, "Contaminants": null }, "geometry": { "type": "Point", "coordinates": [ -73.999722222, 40.663611111 ] } },
{ "type": "Feature", "properties": { "Program Number": "231007", "Program Type": "HW", "Program Facility Name": "CE E.14th Street Works (East River Generating Sta)", "Site Class": "A", "Address1": "East 14th Street", "Address2": null, "County": "New York", "ZIPCode": "10009", "Project Name": "Site Characterization", "Project Completion Date": "03\/05\/2008", "Waste Name": null, "Contaminants": "coal tar" }, "geometry": { "type": "Point", "coordinates": [ -73.97387904, 40.7280806 ] } },
{ "type": "Feature", "properties": { "Program Number": "203083", "Program Type": "HW", "Program Facility Name": "1120 Westchester Avenue", "Site Class": "02", "Address1": "1120 Westchester Avenue", "Address2": null, "County": "Bronx", "ZIPCode": "10314", "Project Name": "Remedial Action", "Project Completion Date": "06\/08\/2021", "Waste Name": null, "Contaminants": "tetrachloroethene (PCE)" }, "geometry": { "type": "Point", "coordinates": [ -73.889932, 40.825421 ] } },
{ "type": "Feature", "properties": { "Program Number": "224140", "Program Type": "HW", "Program Facility Name": "Kristal Auto Mall", "Site Class": "N", "Address1": "5200 KINGS HIGHWAY", "Address2": null, "County": "Kings", "ZIPCode": "11234", "Project Name": null, "Project Completion Date": "03\/29\/2012", "Waste Name": null, "Contaminants": "chromium" }, "geometry": { "type": "Point", "coordinates": [ -73.927777778, 40.636111111 ] } },
{ "type": "Feature", "properties": { "Program Number": "224249", "Program Type": "HW", "Program Facility Name": "Former E.W. Bliss Projectiles", "Site Class": "P", "Address1": "29 53rd Street", "Address2": null, "County": "Kings", "ZIPCode": "11232", "Project Name": null, "Project Completion Date": "12\/30\/2022", "Waste Name": null, "Contaminants": null }, "geometry": { "type": "Point", "coordinates": [ -74.023055556, 40.650213889 ] } },
{ "type": "Feature", "properties": { "Program Number": "241043", "Program Type": "HW", "Program Facility Name": "Former Adams Brush Facilities", "Site Class": "N", "Address1": "94 - 02 104th Street", "Address2": null, "County": "Queens", "ZIPCode": "11416", "Project Name": null, "Project Completion Date": null, "Waste Name": null, "Contaminants": null }, "geometry": { "type": "Point", "coordinates": [ -73.8403782, 40.68945687 ] } },
{ "type": "Feature", "properties": { "Program Number": "231112", "Program Type": "HW", "Program Facility Name": "CE - E. 21st St. Works", "Site Class": "A", "Address1": "East 20th - East 22nd Sts.", "Address2": null, "County": "New York", "ZIPCode": "10010", "Project Name": null, "Project Completion Date": "03\/31\/2024", "Waste Name": null, "Contaminants": null }, "geometry": { "type": "Point", "coordinates": [ -73.977452552, 40.734771755 ] } },
{ "type": "Feature", "properties": { "Program Number": "224008", "Program Type": "HW", "Program Facility Name": "Technical Metal Finishers", "Site Class": "C", "Address1": "214 Starr Street", "Address2": null, "County": "Kings", "ZIPCode": null, "Project Name": "Remedial Action", "Project Completion Date": "12\/01\/1986", "Waste Name": "AND SOIL AT SITE.", "Contaminants": null }, "geometry": { "type": "Point", "coordinates": [ -73.923044648, 40.705051917 ] } },
{ "type": "Feature", "properties": { "Program Number": "224144", "Program Type": "HW", "Program Facility Name": "Former Ney Smelting and Refining Company", "Site Class": "N", "Address1": "269 Freeman Street", "Address2": null, "County": "Kings", "ZIPCode": "11222", "Project Name": "Site Characterization", "Project Completion Date": "04\/11\/2013", "Waste Name": null, "Contaminants": "cadmium" }, "geometry": { "type": "Point", "coordinates": [ -73.950527001, 40.735353847 ] } },
{ "type": "Feature", "properties": { "Program Number": "224021", "Program Type": "RCRA", "Program Facility Name": "Radiac Research", "Site Class": "N", "Address1": "261 Kent Ave", "Address2": null, "County": "Kings", "ZIPCode": "11211", "Project Name": null, "Project Completion Date": null, "Waste Name": null, "Contaminants": null }, "geometry": { "type": "Point", "coordinates": [ -73.966021396, 40.715761487 ] } },
{ "type": "Feature", "properties": { "Program Number": "231001", "Program Type": "HW", "Program Facility Name": "Ellis Island Drum Storage Area", "Site Class": "N", "Address1": "Ellis Island", "Address2": null, "County": "New York", "ZIPCode": "10004", "Project Name": "Site Characterization", "Project Completion Date": "07\/01\/1994", "Waste Name": null, "Contaminants": null }, "geometry": { "type": "Point", "coordinates": [ -74.039944512, 40.700574512 ] } },
{ "type": "Feature", "properties": { "Program Number": "241001", "Program Type": "HW", "Program Facility Name": "College Point Oil Lagoon", "Site Class": "04", "Address1": "123rd Street and 31st Avenue", "Address2": null, "County": "Queens", "ZIPCode": "11354", "Project Name": null, "Project Completion Date": "12\/20\/2002", "Waste Name": "PCB-CONTAMINATED SOIL AND SLUDGE", "Contaminants": null }, "geometry": { "type": "Point", "coordinates": [ -73.845396349, 40.767129716 ] } },
{ "type": "Feature", "properties": { "Program Number": "224018A", "Program Type": "HW", "Program Facility Name": "Naval Station-Brooklyn, Transformer Area", "Site Class": "C", "Address1": "Flushing Avenue", "Address2": null, "County": "Kings", "ZIPCode": "11205", "Project Name": "Remedial Action", "Project Completion Date": "10\/01\/1995", "Waste Name": null, "Contaminants": null }, "geometry": { "type": "Point", "coordinates": [ -73.96648036, 40.69939965 ] } },
{ "type": "Feature", "properties": { "Program Number": "241221", "Program Type": "HW", "Program Facility Name": "Cedar Manor A08 (LIRR)", "Site Class": "A", "Address1": "158th Street and Tracks", "Address2": null, "County": "Queens", "ZIPCode": "11418", "Project Name": null, "Project Completion Date": "09\/30\/2022", "Waste Name": null, "Contaminants": null }, "geometry": { "type": "Point", "coordinates": [ -73.79223889, 40.69164444 ] } },
{ "type": "Feature", "properties": { "Program Number": "224014", "Program Type": "HW", "Program Facility Name": "Spring Creek (Emerald St.)", "Site Class": "C", "Address1": "Between Ruby & Emerald on Loring Avenue", "Address2": null, "County": "Kings", "ZIPCode": null, "Project Name": "Remedial Action", "Project Completion Date": "04\/01\/1989", "Waste Name": "DRUMS CONTAINING HAZARDOUS WASTE", "Contaminants": null }, "geometry": { "type": "Point", "coordinates": [ -73.860335131, 40.667294562 ] } },
{ "type": "Feature", "properties": { "Program Number": "241148", "Program Type": "RCRA", "Program Facility Name": "Former Hygrade Plating", "Site Class": "C", "Address1": "22-07 41st Avenue", "Address2": null, "County": "Queens", "ZIPCode": "11101", "Project Name": null, "Project Completion Date": "06\/22\/2015", "Waste Name": null, "Contaminants": "cyanides(soluble cyanide salts)" }, "geometry": { "type": "Point", "coordinates": [ -73.941089, 40.753377 ] } },
{ "type": "Feature", "properties": { "Program Number": "231072", "Program Type": "HW", "Program Facility Name": "Former Nu Brite Cleaners", "Site Class": "N", "Address1": "1299 First Avenue", "Address2": null, "County": "New York", "ZIPCode": "10021", "Project Name": null, "Project Completion Date": "11\/16\/2012", "Waste Name": null, "Contaminants": "vinyl chloride" }, "geometry": { "type": "Point", "coordinates": [ -73.957301432, 40.766510995 ] } },
{ "type": "Feature", "properties": { "Program Number": "224197", "Program Type": "HW", "Program Facility Name": "182 Sigourney St", "Site Class": "P", "Address1": "182 Sigourney St", "Address2": null, "County": "Kings", "ZIPCode": "11231", "Project Name": null, "Project Completion Date": "01\/31\/2023", "Waste Name": null, "Contaminants": null }, "geometry": { "type": "Point", "coordinates": [ -74.000894444, 40.670119444 ] } },
{ "type": "Feature", "properties": { "Program Number": "224123", "Program Type": "HW", "Program Facility Name": "Empire Varnish Company, Inc.", "Site Class": "C", "Address1": "38 VARICK STREET", "Address2": null, "County": "Kings", "ZIPCode": "11222", "Project Name": "Remedial Design", "Project Completion Date": "09\/30\/2007", "Waste Name": null, "Contaminants": null }, "geometry": { "type": "Point", "coordinates": [ -73.935833333, 40.726944444 ] } },
{ "type": "Feature", "properties": { "Program Number": "243001", "Program Type": "HW", "Program Facility Name": "Positive Chemical", "Site Class": "C", "Address1": "250 Meredith Avenue", "Address2": null, "County": "Richmond", "ZIPCode": "10314", "Project Name": "Remedial Action", "Project Completion Date": "06\/01\/1981", "Waste Name": "EPICHLOROHYDRIN", "Contaminants": "epichlorohydrin" }, "geometry": { "type": "Point", "coordinates": [ -74.19348879, 40.59860034 ] } },
{ "type": "Feature", "properties": { "Program Number": "224231", "Program Type": "HW", "Program Facility Name": "Former Columbia Smelting", "Site Class": "P", "Address1": "98 LORRAINE STREET", "Address2": null, "County": "Kings", "ZIPCode": "11231", "Project Name": null, "Project Completion Date": null, "Waste Name": null, "Contaminants": null }, "geometry": { "type": "Point", "coordinates": [ -74.00554, 40.67326 ] } },
{ "type": "Feature", "properties": { "Program Number": "224067", "Program Type": "HW", "Program Facility Name": "K - Scholes St. Station", "Site Class": "A", "Address1": "Scholes St 7 Bogart Sts, Messerole & Morgan Ave.", "Address2": null, "County": "Kings", "ZIPCode": "11206", "Project Name": "Site Characterization", "Project Completion Date": "12\/29\/2014", "Waste Name": null, "Contaminants": "coal tar" }, "geometry": { "type": "Point", "coordinates": [ -73.934444444, 40.709166667 ] } },
{ "type": "Feature", "properties": { "Program Number": "231085", "Program Type": "HW", "Program Facility Name": "Hudson Dry Cleaners", "Site Class": "P", "Address1": "462 Hudson Street", "Address2": null, "County": "New York", "ZIPCode": "10014", "Project Name": null, "Project Completion Date": "12\/31\/2022", "Waste Name": null, "Contaminants": null }, "geometry": { "type": "Point", "coordinates": [ -74.006287769, 40.731259096 ] } },
{ "type": "Feature", "properties": { "Program Number": "241125", "Program Type": "HW", "Program Facility Name": "Former Johnny On The Spot Drycleaners", "Site Class": "N", "Address1": "152-45 to 153-01 10th Avenue", "Address2": null, "County": "Queens", "ZIPCode": "11357", "Project Name": null, "Project Completion Date": "03\/05\/2015", "Waste Name": null, "Contaminants": "vinyl chloride" }, "geometry": { "type": "Point", "coordinates": [ -73.808305556, 40.793566667 ] } },
{ "type": "Feature", "properties": { "Program Number": "231005", "Program Type": "HW", "Program Facility Name": "Consolidated Gas 18th St. Station", "Site Class": "A", "Address1": "between 18th & 20th Streets and 10th & 11th Avenue", "Address2": null, "County": "New York", "ZIPCode": "10027", "Project Name": null, "Project Completion Date": "09\/30\/2022", "Waste Name": null, "Contaminants": null }, "geometry": { "type": "Point", "coordinates": [ -74.007244007, 40.745700602 ] } },
{ "type": "Feature", "properties": { "Program Number": "224142", "Program Type": "HW", "Program Facility Name": "Ingraham Street Sidewalk GW", "Site Class": "P", "Address1": "Ingraham Street", "Address2": null, "County": "Kings", "ZIPCode": "11237", "Project Name": null, "Project Completion Date": "09\/30\/2022", "Waste Name": null, "Contaminants": "cis-1,2-dichloroethene" }, "geometry": { "type": "Point", "coordinates": [ -73.93008533, 40.707155254 ] } },
{ "type": "Feature", "properties": { "Program Number": "224179", "Program Type": "HW", "Program Facility Name": "Watermark Designs DeWitt Ave", "Site Class": "N", "Address1": "350 Dewitt Avenue", "Address2": null, "County": "Kings", "ZIPCode": "11207", "Project Name": "Site Characterization", "Project Completion Date": "10\/22\/2013", "Waste Name": null, "Contaminants": null }, "geometry": { "type": "Point", "coordinates": [ -73.896944444, 40.655555556 ] } },
{ "type": "Feature", "properties": { "Program Number": "224177", "Program Type": "HW", "Program Facility Name": "Former Cleaners Sales & Equipment Corp", "Site Class": "N", "Address1": "135 KENT AVENUE", "Address2": null, "County": "Kings", "ZIPCode": "11249", "Project Name": "Site Characterization", "Project Completion Date": "10\/30\/2013", "Waste Name": null, "Contaminants": "tetrachloroethene (PCE)" }, "geometry": { "type": "Point", "coordinates": [ -73.962166667, 40.719436111 ] } },
{ "type": "Feature", "properties": { "Program Number": "241106", "Program Type": "HW", "Program Facility Name": "64th Street Storage Yard", "Site Class": "02", "Address1": "33-32 64th Street", "Address2": null, "County": "Queens", "ZIPCode": "11377", "Project Name": null, "Project Completion Date": "12\/31\/2022", "Waste Name": null, "Contaminants": "lead" }, "geometry": { "type": "Point", "coordinates": [ -73.899444444, 40.753055556 ] } },
{ "type": "Feature", "properties": { "Program Number": "241034", "Program Type": "HW", "Program Facility Name": "CE - Farrington St. Holder", "Site Class": "A", "Address1": "Farrington Street at 32nd Street", "Address2": null, "County": "Queens", "ZIPCode": "11354", "Project Name": "Remedial Design", "Project Completion Date": "01\/24\/2002", "Waste Name": null, "Contaminants": null }, "geometry": { "type": "Point", "coordinates": [ -73.83276171, 40.76802981 ] } },
{ "type": "Feature", "properties": { "Program Number": "231118", "Program Type": "HW", "Program Facility Name": "CE - E. 108th St. Station", "Site Class": "A", "Address1": "108th St. West of First Ave.", "Address2": null, "County": "New York", "ZIPCode": "10029", "Project Name": null, "Project Completion Date": "04\/30\/2025", "Waste Name": null, "Contaminants": null }, "geometry": { "type": "Point", "coordinates": [ -73.937905768, 40.7906891 ] } },
{ "type": "Feature", "properties": { "Program Number": "224167", "Program Type": "HW", "Program Facility Name": "Paerdegat Basin", "Site Class": "P", "Address1": "Paerdegat Basin", "Address2": null, "County": "Kings", "ZIPCode": "11236", "Project Name": null, "Project Completion Date": "12\/31\/2022", "Waste Name": null, "Contaminants": null }, "geometry": { "type": "Point", "coordinates": [ -73.910625478, 40.6285282 ] } },
{ "type": "Feature", "properties": { "Program Number": "224254", "Program Type": "HW", "Program Facility Name": "458 East 99th Street", "Site Class": "N", "Address1": "458 East 99th Street", "Address2": null, "County": "Kings", "ZIPCode": "11236", "Project Name": null, "Project Completion Date": null, "Waste Name": null, "Contaminants": "tetrachloroethene (PCE)" }, "geometry": { "type": "Point", "coordinates": [ -73.904833333, 40.649722222 ] } },
{ "type": "Feature", "properties": { "Program Number": "231069", "Program Type": "HW", "Program Facility Name": "Fort Jay DoD Grant", "Site Class": "A", "Address1": "Governors Island", "Address2": null, "County": "New York", "ZIPCode": "10004", "Project Name": "Site Characterization", "Project Completion Date": "01\/31\/2008", "Waste Name": null, "Contaminants": null }, "geometry": { "type": "Point", "coordinates": [ -74.022630278, 40.684987778 ] } },
{ "type": "Feature", "properties": { "Program Number": "224296", "Program Type": "HW", "Program Facility Name": "Rapid Armored Corporation", "Site Class": "N", "Address1": "254 Scholes Street", "Address2": null, "County": "Kings", "ZIPCode": "11206", "Project Name": "Site Characterization", "Project Completion Date": "02\/25\/2021", "Waste Name": null, "Contaminants": "1,2-dichlorobenzene" }, "geometry": { "type": "Point", "coordinates": [ -73.938313889, 40.708966667 ] } },
{ "type": "Feature", "properties": { "Program Number": "243036", "Program Type": "HW", "Program Facility Name": "Mariners Marsh Park", "Site Class": "P", "Address1": "3418 Richmond Terrace", "Address2": null, "County": "Richmond", "ZIPCode": "10303", "Project Name": null, "Project Completion Date": "12\/31\/2023", "Waste Name": null, "Contaminants": null }, "geometry": { "type": "Point", "coordinates": [ -74.175395966, 40.637550734 ] } },
{ "type": "Feature", "properties": { "Program Number": "241143", "Program Type": "HW", "Program Facility Name": "The Wills Building", "Site Class": "N", "Address1": "43-01 21st Street", "Address2": null, "County": "Queens", "ZIPCode": "11101", "Project Name": null, "Project Completion Date": null, "Waste Name": null, "Contaminants": "trichloroethene (TCE)" }, "geometry": { "type": "Point", "coordinates": [ -73.945424, 40.750117 ] } },
{ "type": "Feature", "properties": { "Program Number": "241029", "Program Type": "HW", "Program Facility Name": "K - Rockaway Park MGP", "Site Class": "02", "Address1": "Beach Channel Drive & Beach 108th Street", "Address2": null, "County": "Queens", "ZIPCode": "11694", "Project Name": "Remedial Investigation", "Project Completion Date": "10\/26\/2004", "Waste Name": null, "Contaminants": null }, "geometry": { "type": "Point", "coordinates": [ -73.83120715, 40.58270147 ] } },
{ "type": "Feature", "properties": { "Program Number": "224171", "Program Type": "HW", "Program Facility Name": "Bragg Street  Avenue W GW", "Site Class": "P", "Address1": "Intersection of Bragg Street and Avenue W", "Address2": null, "County": "Kings", "ZIPCode": "11229", "Project Name": null, "Project Completion Date": "01\/31\/2023", "Waste Name": null, "Contaminants": null }, "geometry": { "type": "Point", "coordinates": [ -73.935194228, 40.597391688 ] } },
{ "type": "Feature", "properties": { "Program Number": "241223", "Program Type": "HW", "Program Facility Name": "College Point Properties, Inc.", "Site Class": "A", "Address1": "121-51 5th Avenue", "Address2": null, "County": "Queens", "ZIPCode": "11356", "Project Name": null, "Project Completion Date": null, "Waste Name": null, "Contaminants": "polychlorinated biphenyls (PCB)" }, "geometry": { "type": "Point", "coordinates": [ -73.84830783, 40.79419126 ] } },
{ "type": "Feature", "properties": { "Program Number": "241139", "Program Type": "HW", "Program Facility Name": "Former Luft Co. Inc. Cosmetics Manufacturer", "Site Class": "N", "Address1": "34-12 36th Avenue", "Address2": null, "County": "Queens", "ZIPCode": "11106", "Project Name": "Site Characterization", "Project Completion Date": "11\/29\/2012", "Waste Name": null, "Contaminants": "1,1,2-trichlorethylene" }, "geometry": { "type": "Point", "coordinates": [ -73.926991519, 40.754983412 ] } },
{ "type": "Feature", "properties": { "Program Number": "241153", "Program Type": "HW", "Program Facility Name": "Clearview Cleaners", "Site Class": "N", "Address1": "202-16 Hillside Avenue", "Address2": null, "County": "Queens", "ZIPCode": "11423", "Project Name": null, "Project Completion Date": "03\/20\/2017", "Waste Name": null, "Contaminants": null }, "geometry": { "type": "Point", "coordinates": [ -73.761285, 40.720024 ] } },
{ "type": "Feature", "properties": { "Program Number": "224257", "Program Type": "HW", "Program Facility Name": "1104-1106 Bedford Avenue-OER", "Site Class": "P", "Address1": "1104-1106 Bedford Avenue", "Address2": null, "County": "Kings", "ZIPCode": "11216", "Project Name": null, "Project Completion Date": "06\/01\/2022", "Waste Name": null, "Contaminants": null }, "geometry": { "type": "Point", "coordinates": [ -73.954974, 40.68689 ] } },
{ "type": "Feature", "properties": { "Program Number": "203012", "Program Type": "HW", "Program Facility Name": "New York Post Printing (Walnut Depot)", "Site Class": "N", "Address1": "Walnut Ave", "Address2": null, "County": "Bronx", "ZIPCode": "1", "Project Name": null, "Project Completion Date": null, "Waste Name": null, "Contaminants": null }, "geometry": { "type": "Point", "coordinates": [ -73.912729, 40.798312 ] } },
{ "type": "Feature", "properties": { "Program Number": "243016", "Program Type": "RCRA", "Program Facility Name": "Former Port Mobil Terminal", "Site Class": "A", "Address1": "4101 Arthur Kill Road", "Address2": null, "County": "Richmond", "ZIPCode": "10309", "Project Name": null, "Project Completion Date": "08\/31\/2023", "Waste Name": null, "Contaminants": null }, "geometry": { "type": "Point", "coordinates": [ -74.240049, 40.545021 ] } },
{ "type": "Feature", "properties": { "Program Number": "224238", "Program Type": "HW", "Program Facility Name": "Former Atlas White Metals", "Site Class": "P", "Address1": "67 Delevan St.", "Address2": null, "County": "Kings", "ZIPCode": "11231", "Project Name": null, "Project Completion Date": null, "Waste Name": null, "Contaminants": null }, "geometry": { "type": "Point", "coordinates": [ -74.008381396, 40.67945297 ] } },
{ "type": "Feature", "properties": { "Program Number": "224030", "Program Type": "HW", "Program Facility Name": "USCG Air Station Brooklyn", "Site Class": "P", "Address1": "Floyd Bennett Field", "Address2": null, "County": "Kings", "ZIPCode": "11234-", "Project Name": null, "Project Completion Date": "07\/31\/2024", "Waste Name": null, "Contaminants": null }, "geometry": { "type": "Point", "coordinates": [ -73.884442731, 40.584281594 ] } },
{ "type": "Feature", "properties": { "Program Number": "224065", "Program Type": "HW", "Program Facility Name": "K - Plymouth Station", "Site Class": "A", "Address1": "Plymouth, Hudson, Water & Gold Sts.", "Address2": null, "County": "Kings", "ZIPCode": "11206", "Project Name": null, "Project Completion Date": "01\/03\/2028", "Waste Name": null, "Contaminants": "coal tar" }, "geometry": { "type": "Point", "coordinates": [ -73.982222222, 40.703333333 ] } },
{ "type": "Feature", "properties": { "Program Number": "243039", "Program Type": "HW", "Program Facility Name": "Arthur Kill Correctional Facility Firing Ranges", "Site Class": "C", "Address1": "2911 Arthur Kill Road", "Address2": null, "County": "Richmond", "ZIPCode": "10309-1101", "Project Name": "Remedial Action", "Project Completion Date": "10\/16\/2018", "Waste Name": null, "Contaminants": null }, "geometry": { "type": "Point", "coordinates": [ -74.231222222, 40.553388889 ] } },
{ "type": "Feature", "properties": { "Program Number": "203050", "Program Type": "HW", "Program Facility Name": "2568 Park", "Site Class": "N", "Address1": "2568 Park Avenue", "Address2": null, "County": "Bronx", "ZIPCode": "10451", "Project Name": null, "Project Completion Date": null, "Waste Name": null, "Contaminants": null }, "geometry": { "type": "Point", "coordinates": [ -73.92837304, 40.812895051 ] } },
{ "type": "Feature", "properties": { "Program Number": "224042", "Program Type": "HW", "Program Facility Name": "192 Ralph Avenue", "Site Class": "04", "Address1": "192 Ralph Ave", "Address2": null, "County": "Kings", "ZIPCode": "11233", "Project Name": "Remedial Investigation", "Project Completion Date": "03\/30\/2018", "Waste Name": null, "Contaminants": null }, "geometry": { "type": "Point", "coordinates": [ -73.922946451, 40.683191775 ] } },
{ "type": "Feature", "properties": { "Program Number": "241112", "Program Type": "HW", "Program Facility Name": "44th Road East of 21st Street Plume Trackdown", "Site Class": "N", "Address1": "44th Road East of 21st Street", "Address2": null, "County": "Queens", "ZIPCode": "11120", "Project Name": "Site Characterization", "Project Completion Date": "02\/20\/2009", "Waste Name": null, "Contaminants": null }, "geometry": { "type": "Point", "coordinates": [ -73.946053896, 40.749762121 ] } },
{ "type": "Feature", "properties": { "Program Number": "241027", "Program Type": "HW", "Program Facility Name": "EDO Corporation", "Site Class": "N", "Address1": "111-01 14th Ave", "Address2": null, "County": "Queens", "ZIPCode": "11356-", "Project Name": null, "Project Completion Date": null, "Waste Name": null, "Contaminants": null }, "geometry": { "type": "Point", "coordinates": [ -73.85583698, 40.78547953 ] } },
{ "type": "Feature", "properties": { "Program Number": "224056", "Program Type": "HW", "Program Facility Name": "K - Kings County Works", "Site Class": "A", "Address1": "55th St & 1st Ave", "Address2": null, "County": "Kings", "ZIPCode": "11220", "Project Name": "Site Characterization", "Project Completion Date": "08\/26\/2020", "Waste Name": null, "Contaminants": null }, "geometry": { "type": "Point", "coordinates": [ -74.022222222, 40.648888889 ] } },
{ "type": "Feature", "properties": { "Program Number": "224161", "Program Type": "HW", "Program Facility Name": "22 Caton Place", "Site Class": "N", "Address1": "22 Caton Place", "Address2": null, "County": "Kings", "ZIPCode": "11218", "Project Name": "Site Characterization", "Project Completion Date": "02\/05\/2013", "Waste Name": null, "Contaminants": "1,1 dichloroethene" }, "geometry": { "type": "Point", "coordinates": [ -73.973819444, 40.648991667 ] } },
{ "type": "Feature", "properties": { "Program Number": "241118", "Program Type": "HW", "Program Facility Name": "32nd Avenue and Farrington Street Plume Trackdown", "Site Class": "N", "Address1": "32nd Avenue and Farrington Street", "Address2": null, "County": "Queens", "ZIPCode": "11354", "Project Name": "Site Characterization", "Project Completion Date": "06\/07\/2010", "Waste Name": null, "Contaminants": null }, "geometry": { "type": "Point", "coordinates": [ -73.832833333, 40.767383333 ] } },
{ "type": "Feature", "properties": { "Program Number": "231066", "Program Type": "HW", "Program Facility Name": "Pleasant Avenue Plume Trackdown", "Site Class": "N", "Address1": "Pleasant Avenue", "Address2": null, "County": "New York", "ZIPCode": "10029", "Project Name": "Site Characterization", "Project Completion Date": "06\/24\/2011", "Waste Name": null, "Contaminants": null }, "geometry": { "type": "Point", "coordinates": [ -73.933611111, 40.795277778 ] } },
{ "type": "Feature", "properties": { "Program Number": "241191", "Program Type": "HW", "Program Facility Name": "Motor and Iron Works", "Site Class": "N", "Address1": "37-21 32nd Street", "Address2": null, "County": "Queens", "ZIPCode": "11120", "Project Name": "Site Characterization", "Project Completion Date": "03\/29\/2021", "Waste Name": null, "Contaminants": null }, "geometry": { "type": "Point", "coordinates": [ -73.930277778, 40.753888889 ] } },
{ "type": "Feature", "properties": { "Program Number": "241019", "Program Type": "HW", "Program Facility Name": "Fort Tilden - Breezy Point", "Site Class": "A", "Address1": "Beach 193 rd Street and Shore Road", "Address2": null, "County": "Queens", "ZIPCode": "11697", "Project Name": "Site Characterization", "Project Completion Date": "12\/01\/1996", "Waste Name": null, "Contaminants": null }, "geometry": { "type": "Point", "coordinates": [ -73.901510882, 40.559374106 ] } },
{ "type": "Feature", "properties": { "Program Number": "241135", "Program Type": "HW", "Program Facility Name": "Cumberland Farms Exxon", "Site Class": "N", "Address1": "202-06 HILLSIDE AVENUE", "Address2": null, "County": "Queens", "ZIPCode": "11423", "Project Name": "Site Characterization", "Project Completion Date": "07\/25\/2013", "Waste Name": null, "Contaminants": null }, "geometry": { "type": "Point", "coordinates": [ -73.761528009, 40.719882379 ] } },
{ "type": "Feature", "properties": { "Program Number": "231064", "Program Type": "HW", "Program Facility Name": "1st Ave. and E. 76th Street GW", "Site Class": "P", "Address1": "1st Ave. and E. 76th Street intersection", "Address2": null, "County": "New York", "ZIPCode": "10021", "Project Name": "Site Characterization", "Project Completion Date": "03\/26\/2020", "Waste Name": null, "Contaminants": "trichloroethene (TCE)" }, "geometry": { "type": "Point", "coordinates": [ -73.954027778, 40.770277778 ] } },